<?xml version="1.0" encoding="utf-8"?>
<ArrayOfVolunteer xmlns:xsi="http://www.w3.org/2001/XMLSchema-instance" xmlns:xsd="http://www.w3.org/2001/XMLSchema">
  <Volunteer>
    <Id>218372043</Id>
    <Name>Dani Levy</Name>
    <PhoneNumber>0590326491</PhoneNumber>
    <Email>0590326491@gmail.com</Email>
    <Password>383;&lt;594;;-</Password>
    <Address>King George 1, Jerusalem, Israel</Address>
    <Latitude>31.776</Latitude>
    <Longitude>35.2218</Longitude>
    <Role>manager</Role>
    <Active>true</Active>
    <MaxDistance>2038916570</MaxDistance>
    <TheDistanceType>air</TheDistanceType>
  </Volunteer>
  <Volunteer>
    <Id>318207149</Id>
    <Name>Eli Amar</Name>
    <PhoneNumber>0534210975</PhoneNumber>
    <Email>0534210975@gmail.com</Email>
    <Password>sV3867543&lt;:8-</Password>
    <Address>Jaffa 23, Jerusalem, Israel</Address>
    <Latitude>31.771</Latitude>
    <Longitude>35.2137</Longitude>
    <Role>volunteer</Role>
    <Active>true</Active>
    <MaxDistance>1128975748</MaxDistance>
    <TheDistanceType>air</TheDistanceType>
  </Volunteer>
  <Volunteer>
    <Id>211722251</Id>
    <Name>Yair Cohen</Name>
    <PhoneNumber>0544015772</PhoneNumber>
    <Email>0544015772@gmail.com</Email>
    <Password>sV3877348::5-</Password>
    <Address>Agripas 45, Jerusalem, Israel</Address>
    <Latitude>31.777</Latitude>
    <Longitude>35.2212</Longitude>
    <Role>volunteer</Role>
    <Active>true</Active>
    <MaxDistance>680344116</MaxDistance>
    <TheDistanceType>air</TheDistanceType>
  </Volunteer>
  <Volunteer>
    <Id>235246881</Id>
    <Name>Ariela Levin</Name>
    <PhoneNumber>0594794885</PhoneNumber>
    <Email>0594794885@gmail.com</Email>
    <Password>sV38&lt;7:&lt;7;;8-</Password>
    <Address>Ben Yehuda 67, Jerusalem, Israel</Address>
    <Latitude>31.779</Latitude>
    <Longitude>35.2135</Longitude>
    <Role>volunteer</Role>
    <Active>true</Active>
    <MaxDistance>677785319</MaxDistance>
    <TheDistanceType>air</TheDistanceType>
  </Volunteer>
  <Volunteer>
    <Id>208979633</Id>
    <Name>Dina Klein</Name>
    <PhoneNumber>0541391553</PhoneNumber>
    <Email>0541391553@gmail.com</Email>
    <Password>sV38746&lt;4886-</Password>
    <Address>HaNeviim 89, Jerusalem, Israel</Address>
    <Latitude>31.783</Latitude>
    <Longitude>35.2143</Longitude>
    <Role>volunteer</Role>
    <Active>true</Active>
    <MaxDistance>1574385738</MaxDistance>
    <TheDistanceType>air</TheDistanceType>
  </Volunteer>
  <Volunteer>
    <Id>208773994</Id>
    <Name>Shira Israelof</Name>
    <PhoneNumber>0583612990</PhoneNumber>
    <Email>0583612990@gmail.com</Email>
    <Password>sV38;6945&lt;&lt;3-</Password>
    <Address>Yad Harutsim 101, Jerusalem, Israel</Address>
    <Latitude>31.791</Latitude>
    <Longitude>35.2007</Longitude>
    <Role>volunteer</Role>
    <Active>true</Active>
    <MaxDistance>1422251250</MaxDistance>
    <TheDistanceType>air</TheDistanceType>
  </Volunteer>
  <Volunteer>
    <Id>207249780</Id>
    <Name>yael cohen</Name>
    <PhoneNumber>0561222524</PhoneNumber>
    <Email>0561222524@gmail.com</Email>
    <Password>sV3894555857-</Password>
    <Address>Emek Refaim 15, Jerusalem, Israel</Address>
    <Latitude>31.758</Latitude>
    <Longitude>35.2072</Longitude>
    <Role>volunteer</Role>
    <Active>true</Active>
    <MaxDistance>1892087672</MaxDistance>
    <TheDistanceType>air</TheDistanceType>
  </Volunteer>
  <Volunteer>
    <Id>322638370</Id>
    <Name>david azrad</Name>
    <PhoneNumber>0544510742</PhoneNumber>
    <Email>0544510742@gmail.com</Email>
    <Password>sV3877843:75-</Password>
    <Address>Malha Rd 33, Jerusalem, Israel</Address>
    <Latitude>31.75</Latitude>
    <Longitude>35.1907</Longitude>
    <Role>volunteer</Role>
    <Active>true</Active>
    <MaxDistance>1970784651</MaxDistance>
    <TheDistanceType>air</TheDistanceType>
  </Volunteer>
  <Volunteer>
    <Id>316529080</Id>
    <Name>miri levi</Name>
    <PhoneNumber>0541654066</PhoneNumber>
    <Email>0541654066@gmail.com</Email>
    <Password>sV3874987399-</Password>
    <Address>Harav Kook 2, Jerusalem, Israel</Address>
    <Latitude>31.768</Latitude>
    <Longitude>35.2091</Longitude>
    <Role>volunteer</Role>
    <Active>true</Active>
    <MaxDistance>1268696198</MaxDistance>
    <TheDistanceType>air</TheDistanceType>
  </Volunteer>
  <Volunteer>
    <Id>241441864</Id>
    <Name>amir shalom</Name>
    <PhoneNumber>0594230492</PhoneNumber>
    <Email>0594230492@gmail.com</Email>
    <Password>sV38&lt;75637&lt;5-</Password>
    <Address>Hillel 40, Jerusalem, Israel</Address>
    <Latitude>31.778</Latitude>
    <Longitude>35.2181</Longitude>
    <Role>volunteer</Role>
    <Active>true</Active>
    <MaxDistance>186626856</MaxDistance>
    <TheDistanceType>air</TheDistanceType>
  </Volunteer>
  <Volunteer>
    <Id>331295121</Id>
    <Name>ronit shahar</Name>
    <PhoneNumber>0582923506</PhoneNumber>
    <Email>0582923506@gmail.com</Email>
    <Password>sV38;5&lt;56839-</Password>
    <Address>Davidka Square 5, Jerusalem, Israel</Address>
    <Latitude>31.761</Latitude>
    <Longitude>35.2133</Longitude>
    <Role>volunteer</Role>
    <Active>true</Active>
    <MaxDistance>517247042</MaxDistance>
    <TheDistanceType>air</TheDistanceType>
  </Volunteer>
  <Volunteer>
    <Id>215041013</Id>
    <Name>itay ben-david</Name>
    <PhoneNumber>0568807368</PhoneNumber>
    <Email>0568807368@gmail.com</Email>
    <Password>sV389;;3:69;-</Password>
    <Address>Ramban 21, Jerusalem, Israel</Address>
    <Latitude>31.773</Latitude>
    <Longitude>35.2046</Longitude>
    <Role>volunteer</Role>
    <Active>true</Active>
    <MaxDistance>415366741</MaxDistance>
    <TheDistanceType>air</TheDistanceType>
  </Volunteer>
  <Volunteer>
    <Id>214363350</Id>
    <Name>maya peretz</Name>
    <PhoneNumber>0593979321</PhoneNumber>
    <Email>0593979321@gmail.com</Email>
    <Password>sV38&lt;6&lt;:&lt;654-</Password>
    <Address>Tchernichovsky 37, Jerusalem, Israel</Address>
    <Latitude>31.759</Latitude>
    <Longitude>35.215</Longitude>
    <Role>volunteer</Role>
    <Active>true</Active>
    <MaxDistance>180567114</MaxDistance>
    <TheDistanceType>air</TheDistanceType>
  </Volunteer>
  <Volunteer>
    <Id>215089632</Id>
    <Name>yoni abergil</Name>
    <PhoneNumber>0551710860</PhoneNumber>
    <Email>0551710860@gmail.com</Email>
    <Password>sV3884:43;93-</Password>
    <Address>HaPalmach 11, Jerusalem, Israel</Address>
    <Latitude>31.78</Latitude>
    <Longitude>35.1984</Longitude>
    <Role>volunteer</Role>
    <Active>true</Active>
    <MaxDistance>1965419222</MaxDistance>
    <TheDistanceType>air</TheDistanceType>
  </Volunteer>
  <Volunteer>
    <Id>327887360</Id>
    <Name>lior haddad</Name>
    <PhoneNumber>0532889295</PhoneNumber>
    <Email>0532889295@gmail.com</Email>
    <Password>sV3865;;&lt;5&lt;8-</Password>
    <Address>Keren HaYesod 90, Jerusalem, Israel</Address>
    <Latitude>31.762</Latitude>
    <Longitude>35.2075</Longitude>
    <Role>volunteer</Role>
    <Active>true</Active>
    <MaxDistance>1392432779</MaxDistance>
    <TheDistanceType>air</TheDistanceType>
  </Volunteer>
  <Volunteer>
    <Id>326549441</Id>
    <Name>rivka azrad</Name>
    <PhoneNumber>0524799191</PhoneNumber>
    <Email>0524799191@gmail.com</Email>
    <Password>Sdvvzrug45&amp;</Password>
    <Address>Hapisga 30, Jerusalem, Israel</Address>
    <Latitude>31.78</Latitude>
    <Longitude>35.21</Longitude>
    <Role>volunteer</Role>
    <Active>true</Active>
    <MaxDistance>994883565</MaxDistance>
    <TheDistanceType>air</TheDistanceType>
  </Volunteer>
  <Volunteer>
    <Id>309366532</Id>
    <Name>Rivka Azrad</Name>
    <PhoneNumber>0508926188</PhoneNumber>
    <Email>rivkaazrad@gmail.com</Email>
    <Password>38:4;&lt;48;;-</Password>
    <Address>Hapisga 10, Jerusalem, Israel</Address>
    <Latitude>31.7683</Latitude>
    <Longitude>35.2137</Longitude>
    <Role>volunteer</Role>
    <Active>false</Active>
    <MaxDistance>60000000</MaxDistance>
    <TheDistanceType>air</TheDistanceType>
  </Volunteer>
  <Volunteer>
    <Id>214763252</Id>
    <Name>Oriya Yitzhaky</Name>
    <PhoneNumber>0504185888</PhoneNumber>
    <Email>aazrad@gmail.com</Email>
    <Password>38;9454964-</Password>
    <Address>Hapisga 15, Jerusalem, Israel</Address>
    <Latitude>31.7683</Latitude>
    <Longitude>35.2137</Longitude>
    <Role>volunteer</Role>
    <Active>false</Active>
    <MaxDistance xsi:nil="true" />
    <TheDistanceType>air</TheDistanceType>
  </Volunteer>
</ArrayOfVolunteer>