<?xml version="1.0" encoding="utf-8"?>
<ArrayOfVolunteer xmlns:xsi="http://www.w3.org/2001/XMLSchema-instance" xmlns:xsd="http://www.w3.org/2001/XMLSchema">
  <Volunteer>
    <Id>358208747</Id>
    <Name>Dani Levy</Name>
    <PhoneNumber>0510554447</PhoneNumber>
    <Email>0510554447@gmail.com</Email>
    <Password>sv384388777:</Password>
    <Address>Jerusalem, King George St 1, Israel</Address>
    <Latitude>31.776</Latitude>
    <Longitude>35.2218</Longitude>
    <Role>manager</Role>
    <Active>true</Active>
    <MaxDistance>407706868</MaxDistance>
    <TheDistanceType>air</TheDistanceType>
  </Volunteer>
  <Volunteer>
    <Id>240092797</Id>
    <Name>Eli Amar</Name>
    <PhoneNumber>0587952239</PhoneNumber>
    <Email>0587952239@gmail.com</Email>
    <Password>sv38;:&lt;8556&lt;</Password>
    <Address>Jerusalem, Jaffa St 23, Israel</Address>
    <Latitude>31.771</Latitude>
    <Longitude>35.2137</Longitude>
    <Role>volunteer</Role>
    <Active>true</Active>
    <MaxDistance>1052478175</MaxDistance>
    <TheDistanceType>air</TheDistanceType>
  </Volunteer>
  <Volunteer>
    <Id>257796363</Id>
    <Name>Yair Cohen</Name>
    <PhoneNumber>0542319570</PhoneNumber>
    <Email>0542319570@gmail.com</Email>
    <Password>sv387564&lt;8:3</Password>
    <Address>Jerusalem, Agripas St 45, Israel</Address>
    <Latitude>31.777</Latitude>
    <Longitude>35.2212</Longitude>
    <Role>volunteer</Role>
    <Active>true</Active>
    <MaxDistance>1021070854</MaxDistance>
    <TheDistanceType>air</TheDistanceType>
  </Volunteer>
  <Volunteer>
    <Id>206411884</Id>
    <Name>Ariela Levin</Name>
    <PhoneNumber>0592750207</PhoneNumber>
    <Email>0592750207@gmail.com</Email>
    <Password>sv38&lt;5:8353:</Password>
    <Address>Jerusalem, Ben Yehuda St 67, Israel</Address>
    <Latitude>31.779</Latitude>
    <Longitude>35.2135</Longitude>
    <Role>volunteer</Role>
    <Active>true</Active>
    <MaxDistance>1756436846</MaxDistance>
    <TheDistanceType>air</TheDistanceType>
  </Volunteer>
  <Volunteer>
    <Id>316072515</Id>
    <Name>Dina Klein</Name>
    <PhoneNumber>0564821052</PhoneNumber>
    <Email>0564821052@gmail.com</Email>
    <Password>sv3897;54385</Password>
    <Address>Jerusalem, HaNeviim St 89, Israel</Address>
    <Latitude>31.783</Latitude>
    <Longitude>35.2143</Longitude>
    <Role>volunteer</Role>
    <Active>true</Active>
    <MaxDistance>839105662</MaxDistance>
    <TheDistanceType>air</TheDistanceType>
  </Volunteer>
  <Volunteer>
    <Id>357413888</Id>
    <Name>Shira Israelof</Name>
    <PhoneNumber>0572851349</PhoneNumber>
    <Email>0572851349@gmail.com</Email>
    <Password>sv38:5;8467&lt;</Password>
    <Address>Jerusalem, Yad Harutsim St 101, Israel</Address>
    <Latitude>31.791</Latitude>
    <Longitude>35.2007</Longitude>
    <Role>volunteer</Role>
    <Active>true</Active>
    <MaxDistance>597741391</MaxDistance>
    <TheDistanceType>air</TheDistanceType>
  </Volunteer>
  <Volunteer>
    <Id>359331582</Id>
    <Name>yael cohen</Name>
    <PhoneNumber>0521104353</PhoneNumber>
    <Email>0521104353@gmail.com</Email>
    <Password>sv3854437686</Password>
    <Address>Jerusalem, Emek Refaim St 15, Israel</Address>
    <Latitude>31.758</Latitude>
    <Longitude>35.2072</Longitude>
    <Role>volunteer</Role>
    <Active>true</Active>
    <MaxDistance>1648809117</MaxDistance>
    <TheDistanceType>air</TheDistanceType>
  </Volunteer>
  <Volunteer>
    <Id>340092250</Id>
    <Name>david azrad</Name>
    <PhoneNumber>0510963693</PhoneNumber>
    <Email>0510963693@gmail.com</Email>
    <Password>sv3843&lt;969&lt;6</Password>
    <Address>Jerusalem, Malha Rd 33, Israel</Address>
    <Latitude>31.75</Latitude>
    <Longitude>35.1907</Longitude>
    <Role>volunteer</Role>
    <Active>true</Active>
    <MaxDistance>674846350</MaxDistance>
    <TheDistanceType>air</TheDistanceType>
  </Volunteer>
  <Volunteer>
    <Id>271309639</Id>
    <Name>miri levi</Name>
    <PhoneNumber>0592869411</PhoneNumber>
    <Email>0592869411@gmail.com</Email>
    <Password>sv38&lt;5;9&lt;744</Password>
    <Address>Jerusalem, Harav Kook St 2, Israel</Address>
    <Latitude>31.768</Latitude>
    <Longitude>35.2091</Longitude>
    <Role>volunteer</Role>
    <Active>true</Active>
    <MaxDistance>1013333664</MaxDistance>
    <TheDistanceType>air</TheDistanceType>
  </Volunteer>
  <Volunteer>
    <Id>334284827</Id>
    <Name>amir shalom</Name>
    <PhoneNumber>0598432233</PhoneNumber>
    <Email>0598432233@gmail.com</Email>
    <Password>sv38&lt;;765566</Password>
    <Address>Jerusalem, Hillel St 40, Israel</Address>
    <Latitude>31.778</Latitude>
    <Longitude>35.2181</Longitude>
    <Role>volunteer</Role>
    <Active>true</Active>
    <MaxDistance>614998546</MaxDistance>
    <TheDistanceType>air</TheDistanceType>
  </Volunteer>
  <Volunteer>
    <Id>215128661</Id>
    <Name>ronit shahar</Name>
    <PhoneNumber>0549389473</PhoneNumber>
    <Email>0549389473@gmail.com</Email>
    <Password>sv387&lt;6;&lt;7:6</Password>
    <Address>Jerusalem, Davidka Square 5, Israel</Address>
    <Latitude>31.761</Latitude>
    <Longitude>35.2133</Longitude>
    <Role>volunteer</Role>
    <Active>true</Active>
    <MaxDistance>1933122208</MaxDistance>
    <TheDistanceType>air</TheDistanceType>
  </Volunteer>
  <Volunteer>
    <Id>315543533</Id>
    <Name>itay ben-david</Name>
    <PhoneNumber>0534618780</PhoneNumber>
    <Email>0534618780@gmail.com</Email>
    <Password>sv386794;:;3</Password>
    <Address>Jerusalem, Ramban St 21, Israel</Address>
    <Latitude>31.773</Latitude>
    <Longitude>35.2046</Longitude>
    <Role>volunteer</Role>
    <Active>true</Active>
    <MaxDistance>75862136</MaxDistance>
    <TheDistanceType>air</TheDistanceType>
  </Volunteer>
  <Volunteer>
    <Id>297342686</Id>
    <Name>maya peretz</Name>
    <PhoneNumber>0542914826</PhoneNumber>
    <Email>0542914826@gmail.com</Email>
    <Password>sv3875&lt;47;59</Password>
    <Address>Jerusalem, Tchernichovsky St 37, Israel</Address>
    <Latitude>31.759</Latitude>
    <Longitude>35.215</Longitude>
    <Role>volunteer</Role>
    <Active>true</Active>
    <MaxDistance>334202533</MaxDistance>
    <TheDistanceType>air</TheDistanceType>
  </Volunteer>
  <Volunteer>
    <Id>391941973</Id>
    <Name>yoni abergil</Name>
    <PhoneNumber>0574417534</PhoneNumber>
    <Email>0574417534@gmail.com</Email>
    <Password>sv38:774:867</Password>
    <Address>Jerusalem, HaPalmach St 11, Israel</Address>
    <Latitude>31.78</Latitude>
    <Longitude>35.1984</Longitude>
    <Role>volunteer</Role>
    <Active>true</Active>
    <MaxDistance>873529016</MaxDistance>
    <TheDistanceType>air</TheDistanceType>
  </Volunteer>
  <Volunteer>
    <Id>240188323</Id>
    <Name>lior haddad</Name>
    <PhoneNumber>0511774114</PhoneNumber>
    <Email>0511774114@gmail.com</Email>
    <Password>sv3844::7447</Password>
    <Address>Jerusalem, Keren HaYesod St 90, Israel</Address>
    <Latitude>31.762</Latitude>
    <Longitude>35.2075</Longitude>
    <Role>volunteer</Role>
    <Active>true</Active>
    <MaxDistance>205374402</MaxDistance>
    <TheDistanceType>air</TheDistanceType>
  </Volunteer>
  <Volunteer>
    <Id>352600693</Id>
    <Name>rivka azrad</Name>
    <PhoneNumber>0586320858</PhoneNumber>
    <Email>0586320858@gmail.com</Email>
    <Password>sv38;9653;8;</Password>
    <Address>Jerusalem, Hapisga St 30, Israel</Address>
    <Latitude>31.78</Latitude>
    <Longitude>35.21</Longitude>
    <Role>volunteer</Role>
    <Active>true</Active>
    <MaxDistance>1171864459</MaxDistance>
    <TheDistanceType>air</TheDistanceType>
  </Volunteer>
</ArrayOfVolunteer>