<?xml version="1.0" encoding="utf-8"?>
<ArrayOfVolunteer xmlns:xsi="http://www.w3.org/2001/XMLSchema-instance" xmlns:xsd="http://www.w3.org/2001/XMLSchema">
  <Volunteer>
    <Id>232115355</Id>
    <Name>Dani Levy</Name>
    <PhoneNumber>0590139421</PhoneNumber>
    <Email>0590139421@gmail.com</Email>
    <Password>sv38&lt;346&lt;754</Password>
    <Address>King George 1, Jerusalem, Israel</Address>
    <Latitude>31.776</Latitude>
    <Longitude>35.2218</Longitude>
    <Role>manager</Role>
    <Active>true</Active>
    <MaxDistance>164495794</MaxDistance>
    <TheDistanceType>air</TheDistanceType>
  </Volunteer>
  <Volunteer>
    <Id>361717813</Id>
    <Name>Eli Amar</Name>
    <PhoneNumber>0559147229</PhoneNumber>
    <Email>0559147229@gmail.com</Email>
    <Password>sv388&lt;47:55&lt;</Password>
    <Address>Jaffa 23, Jerusalem, Israel</Address>
    <Latitude>31.771</Latitude>
    <Longitude>35.2137</Longitude>
    <Role>volunteer</Role>
    <Active>true</Active>
    <MaxDistance>1098786567</MaxDistance>
    <TheDistanceType>air</TheDistanceType>
  </Volunteer>
  <Volunteer>
    <Id>204942298</Id>
    <Name>Yair Cohen</Name>
    <PhoneNumber>0512362621</PhoneNumber>
    <Email>0512362621@gmail.com</Email>
    <Password>sv3845695954</Password>
    <Address>Agripas 45, Jerusalem, Israel</Address>
    <Latitude>31.777</Latitude>
    <Longitude>35.2212</Longitude>
    <Role>volunteer</Role>
    <Active>true</Active>
    <MaxDistance>1657147544</MaxDistance>
    <TheDistanceType>air</TheDistanceType>
  </Volunteer>
  <Volunteer>
    <Id>369488077</Id>
    <Name>Ariela Levin</Name>
    <PhoneNumber>0540745239</PhoneNumber>
    <Email>0540745239@gmail.com</Email>
    <Password>sv3873:7856&lt;</Password>
    <Address>Ben Yehuda 67, Jerusalem, Israel</Address>
    <Latitude>31.779</Latitude>
    <Longitude>35.2135</Longitude>
    <Role>volunteer</Role>
    <Active>true</Active>
    <MaxDistance>1753418033</MaxDistance>
    <TheDistanceType>air</TheDistanceType>
  </Volunteer>
  <Volunteer>
    <Id>232281823</Id>
    <Name>Dina Klein</Name>
    <PhoneNumber>0560820338</PhoneNumber>
    <Email>0560820338@gmail.com</Email>
    <Password>sv3893;5366;</Password>
    <Address>HaNeviim 89, Jerusalem, Israel</Address>
    <Latitude>31.783</Latitude>
    <Longitude>35.2143</Longitude>
    <Role>volunteer</Role>
    <Active>true</Active>
    <MaxDistance>135935886</MaxDistance>
    <TheDistanceType>air</TheDistanceType>
  </Volunteer>
  <Volunteer>
    <Id>325722627</Id>
    <Name>Shira Israelof</Name>
    <PhoneNumber>0585100860</PhoneNumber>
    <Email>0585100860@gmail.com</Email>
    <Password>sv38;8433;93</Password>
    <Address>Yad Harutsim 101, Jerusalem, Israel</Address>
    <Latitude>31.791</Latitude>
    <Longitude>35.2007</Longitude>
    <Role>volunteer</Role>
    <Active>true</Active>
    <MaxDistance>462722384</MaxDistance>
    <TheDistanceType>air</TheDistanceType>
  </Volunteer>
  <Volunteer>
    <Id>385415761</Id>
    <Name>yael cohen</Name>
    <PhoneNumber>0521076519</PhoneNumber>
    <Email>0521076519@gmail.com</Email>
    <Password>sv38543:984&lt;</Password>
    <Address>Emek Refaim 15, Jerusalem, Israel</Address>
    <Latitude>31.758</Latitude>
    <Longitude>35.2072</Longitude>
    <Role>volunteer</Role>
    <Active>true</Active>
    <MaxDistance>1626891440</MaxDistance>
    <TheDistanceType>air</TheDistanceType>
  </Volunteer>
  <Volunteer>
    <Id>391842261</Id>
    <Name>david azrad</Name>
    <PhoneNumber>0530454129</PhoneNumber>
    <Email>0530454129@gmail.com</Email>
    <Password>sv386378745&lt;</Password>
    <Address>Malha Rd 33, Jerusalem, Israel</Address>
    <Latitude>31.75</Latitude>
    <Longitude>35.1907</Longitude>
    <Role>volunteer</Role>
    <Active>true</Active>
    <MaxDistance>1548659827</MaxDistance>
    <TheDistanceType>air</TheDistanceType>
  </Volunteer>
  <Volunteer>
    <Id>218488923</Id>
    <Name>miri levi</Name>
    <PhoneNumber>0596547299</PhoneNumber>
    <Email>0596547299@gmail.com</Email>
    <Password>sv38&lt;987:5&lt;&lt;</Password>
    <Address>Harav Kook 2, Jerusalem, Israel</Address>
    <Latitude>31.768</Latitude>
    <Longitude>35.2091</Longitude>
    <Role>volunteer</Role>
    <Active>true</Active>
    <MaxDistance>1522931403</MaxDistance>
    <TheDistanceType>air</TheDistanceType>
  </Volunteer>
  <Volunteer>
    <Id>315719695</Id>
    <Name>amir shalom</Name>
    <PhoneNumber>0537686141</PhoneNumber>
    <Email>0537686141@gmail.com</Email>
    <Password>sv386:9;9474</Password>
    <Address>Hillel 40, Jerusalem, Israel</Address>
    <Latitude>31.778</Latitude>
    <Longitude>35.2181</Longitude>
    <Role>volunteer</Role>
    <Active>true</Active>
    <MaxDistance>1204370931</MaxDistance>
    <TheDistanceType>air</TheDistanceType>
  </Volunteer>
  <Volunteer>
    <Id>340646956</Id>
    <Name>ronit shahar</Name>
    <PhoneNumber>0581243810</PhoneNumber>
    <Email>0581243810@gmail.com</Email>
    <Password>sv38;4576;43</Password>
    <Address>Davidka Square 5, Jerusalem, Israel</Address>
    <Latitude>31.761</Latitude>
    <Longitude>35.2133</Longitude>
    <Role>volunteer</Role>
    <Active>true</Active>
    <MaxDistance>1538118127</MaxDistance>
    <TheDistanceType>air</TheDistanceType>
  </Volunteer>
  <Volunteer>
    <Id>356551182</Id>
    <Name>itay ben-david</Name>
    <PhoneNumber>0563453010</PhoneNumber>
    <Email>0563453010@gmail.com</Email>
    <Password>sv3896786343</Password>
    <Address>Ramban 21, Jerusalem, Israel</Address>
    <Latitude>31.773</Latitude>
    <Longitude>35.2046</Longitude>
    <Role>volunteer</Role>
    <Active>true</Active>
    <MaxDistance>1010563984</MaxDistance>
    <TheDistanceType>air</TheDistanceType>
  </Volunteer>
  <Volunteer>
    <Id>203313067</Id>
    <Name>maya peretz</Name>
    <PhoneNumber>0534570767</PhoneNumber>
    <Email>0534570767@gmail.com</Email>
    <Password>sv38678:3:9:</Password>
    <Address>Tchernichovsky 37, Jerusalem, Israel</Address>
    <Latitude>31.759</Latitude>
    <Longitude>35.215</Longitude>
    <Role>volunteer</Role>
    <Active>true</Active>
    <MaxDistance>1189870898</MaxDistance>
    <TheDistanceType>air</TheDistanceType>
  </Volunteer>
  <Volunteer>
    <Id>344755551</Id>
    <Name>yoni abergil</Name>
    <PhoneNumber>0543305785</PhoneNumber>
    <Email>0543305785@gmail.com</Email>
    <Password>sv3876638:;8</Password>
    <Address>HaPalmach 11, Jerusalem, Israel</Address>
    <Latitude>31.78</Latitude>
    <Longitude>35.1984</Longitude>
    <Role>volunteer</Role>
    <Active>true</Active>
    <MaxDistance>1078926749</MaxDistance>
    <TheDistanceType>air</TheDistanceType>
  </Volunteer>
  <Volunteer>
    <Id>228762518</Id>
    <Name>lior haddad</Name>
    <PhoneNumber>0521115833</PhoneNumber>
    <Email>0521115833@gmail.com</Email>
    <Password>sv3854448;66</Password>
    <Address>Keren HaYesod 90, Jerusalem, Israel</Address>
    <Latitude>31.762</Latitude>
    <Longitude>35.2075</Longitude>
    <Role>volunteer</Role>
    <Active>true</Active>
    <MaxDistance>364192378</MaxDistance>
    <TheDistanceType>air</TheDistanceType>
  </Volunteer>
  <Volunteer>
    <Id>289875687</Id>
    <Name>rivka azrad</Name>
    <PhoneNumber>0532807937</PhoneNumber>
    <Email>0532807937@gmail.com</Email>
    <Password>sv3865;3:&lt;6:</Password>
    <Address>Hapisga 30, Jerusalem, Israel</Address>
    <Latitude>31.78</Latitude>
    <Longitude>35.21</Longitude>
    <Role>volunteer</Role>
    <Active>true</Active>
    <MaxDistance>1272993360</MaxDistance>
    <TheDistanceType>air</TheDistanceType>
  </Volunteer>
</ArrayOfVolunteer>