<?xml version="1.0" encoding="utf-8"?>
<ArrayOfVolunteer xmlns:xsi="http://www.w3.org/2001/XMLSchema-instance" xmlns:xsd="http://www.w3.org/2001/XMLSchema">
  <Volunteer>
    <Id>289029422</Id>
    <Name>Dani Levy</Name>
    <PhoneNumber>0555188508</PhoneNumber>
    <Email>0555188508@gmail.com</Email>
    <Password>sv38884;;83;</Password>
    <Address>King George 1, Jerusalem, Israel</Address>
    <Latitude>31.776</Latitude>
    <Longitude>35.2218</Longitude>
    <Role>manager</Role>
    <Active>true</Active>
    <MaxDistance>6509653</MaxDistance>
    <TheDistanceType>air</TheDistanceType>
  </Volunteer>
  <Volunteer>
    <Id>334351924</Id>
    <Name>Eli Amar</Name>
    <PhoneNumber>0522446345</PhoneNumber>
    <Email>0522446345@gmail.com</Email>
    <Password>sv3855779678</Password>
    <Address>Jaffa 23, Jerusalem, Israel</Address>
    <Latitude>31.771</Latitude>
    <Longitude>35.2137</Longitude>
    <Role>volunteer</Role>
    <Active>true</Active>
    <MaxDistance>987535386</MaxDistance>
    <TheDistanceType>air</TheDistanceType>
  </Volunteer>
  <Volunteer>
    <Id>332645239</Id>
    <Name>Yair Cohen</Name>
    <PhoneNumber>0561812520</PhoneNumber>
    <Email>0561812520@gmail.com</Email>
    <Password>sv3894;45853</Password>
    <Address>Agripas 45, Jerusalem, Israel</Address>
    <Latitude>31.777</Latitude>
    <Longitude>35.2212</Longitude>
    <Role>volunteer</Role>
    <Active>true</Active>
    <MaxDistance>1370439849</MaxDistance>
    <TheDistanceType>air</TheDistanceType>
  </Volunteer>
  <Volunteer>
    <Id>223958349</Id>
    <Name>Ariela Levin</Name>
    <PhoneNumber>0533312154</PhoneNumber>
    <Email>0533312154@gmail.com</Email>
    <Password>sv3866645487</Password>
    <Address>Ben Yehuda 67, Jerusalem, Israel</Address>
    <Latitude>31.779</Latitude>
    <Longitude>35.2135</Longitude>
    <Role>volunteer</Role>
    <Active>true</Active>
    <MaxDistance>412570459</MaxDistance>
    <TheDistanceType>air</TheDistanceType>
  </Volunteer>
  <Volunteer>
    <Id>292477458</Id>
    <Name>Dina Klein</Name>
    <PhoneNumber>0574434235</PhoneNumber>
    <Email>0574434235@gmail.com</Email>
    <Password>sv38:7767568</Password>
    <Address>HaNeviim 89, Jerusalem, Israel</Address>
    <Latitude>31.783</Latitude>
    <Longitude>35.2143</Longitude>
    <Role>volunteer</Role>
    <Active>true</Active>
    <MaxDistance>116136860</MaxDistance>
    <TheDistanceType>air</TheDistanceType>
  </Volunteer>
  <Volunteer>
    <Id>286582719</Id>
    <Name>Shira Israelof</Name>
    <PhoneNumber>0520419485</PhoneNumber>
    <Email>0520419485@gmail.com</Email>
    <Password>sv385374&lt;7;8</Password>
    <Address>Yad Harutsim 101, Jerusalem, Israel</Address>
    <Latitude>31.791</Latitude>
    <Longitude>35.2007</Longitude>
    <Role>volunteer</Role>
    <Active>true</Active>
    <MaxDistance>522011983</MaxDistance>
    <TheDistanceType>air</TheDistanceType>
  </Volunteer>
  <Volunteer>
    <Id>278339819</Id>
    <Name>yael cohen</Name>
    <PhoneNumber>0510853791</PhoneNumber>
    <Email>0510853791@gmail.com</Email>
    <Password>sv3843;86:&lt;4</Password>
    <Address>Emek Refaim 15, Jerusalem, Israel</Address>
    <Latitude>31.758</Latitude>
    <Longitude>35.2072</Longitude>
    <Role>volunteer</Role>
    <Active>true</Active>
    <MaxDistance>849654977</MaxDistance>
    <TheDistanceType>air</TheDistanceType>
  </Volunteer>
  <Volunteer>
    <Id>366336282</Id>
    <Name>david azrad</Name>
    <PhoneNumber>0588735629</PhoneNumber>
    <Email>0588735629@gmail.com</Email>
    <Password>sv38;;:6895&lt;</Password>
    <Address>Malha Rd 33, Jerusalem, Israel</Address>
    <Latitude>31.75</Latitude>
    <Longitude>35.1907</Longitude>
    <Role>volunteer</Role>
    <Active>true</Active>
    <MaxDistance>1596730534</MaxDistance>
    <TheDistanceType>air</TheDistanceType>
  </Volunteer>
  <Volunteer>
    <Id>383584003</Id>
    <Name>miri levi</Name>
    <PhoneNumber>0548466392</PhoneNumber>
    <Email>0548466392@gmail.com</Email>
    <Password>sv387;7996&lt;5</Password>
    <Address>Harav Kook 2, Jerusalem, Israel</Address>
    <Latitude>31.768</Latitude>
    <Longitude>35.2091</Longitude>
    <Role>volunteer</Role>
    <Active>true</Active>
    <MaxDistance>173634484</MaxDistance>
    <TheDistanceType>air</TheDistanceType>
  </Volunteer>
  <Volunteer>
    <Id>322714551</Id>
    <Name>amir shalom</Name>
    <PhoneNumber>0511905909</PhoneNumber>
    <Email>0511905909@gmail.com</Email>
    <Password>sv3844&lt;38&lt;3&lt;</Password>
    <Address>Hillel 40, Jerusalem, Israel</Address>
    <Latitude>31.778</Latitude>
    <Longitude>35.2181</Longitude>
    <Role>volunteer</Role>
    <Active>true</Active>
    <MaxDistance>99160692</MaxDistance>
    <TheDistanceType>air</TheDistanceType>
  </Volunteer>
  <Volunteer>
    <Id>323939182</Id>
    <Name>ronit shahar</Name>
    <PhoneNumber>0529179342</PhoneNumber>
    <Email>0529179342@gmail.com</Email>
    <Password>sv385&lt;4:&lt;675</Password>
    <Address>Davidka Square 5, Jerusalem, Israel</Address>
    <Latitude>31.761</Latitude>
    <Longitude>35.2133</Longitude>
    <Role>volunteer</Role>
    <Active>true</Active>
    <MaxDistance>1827220530</MaxDistance>
    <TheDistanceType>air</TheDistanceType>
  </Volunteer>
  <Volunteer>
    <Id>208533057</Id>
    <Name>itay ben-david</Name>
    <PhoneNumber>0510459857</PhoneNumber>
    <Email>0510459857@gmail.com</Email>
    <Password>sv384378&lt;;8:</Password>
    <Address>Ramban 21, Jerusalem, Israel</Address>
    <Latitude>31.773</Latitude>
    <Longitude>35.2046</Longitude>
    <Role>volunteer</Role>
    <Active>true</Active>
    <MaxDistance>567607084</MaxDistance>
    <TheDistanceType>air</TheDistanceType>
  </Volunteer>
  <Volunteer>
    <Id>268707649</Id>
    <Name>maya peretz</Name>
    <PhoneNumber>0513297008</PhoneNumber>
    <Email>0513297008@gmail.com</Email>
    <Password>sv38465&lt;:33;</Password>
    <Address>Tchernichovsky 37, Jerusalem, Israel</Address>
    <Latitude>31.759</Latitude>
    <Longitude>35.215</Longitude>
    <Role>volunteer</Role>
    <Active>true</Active>
    <MaxDistance>1254047537</MaxDistance>
    <TheDistanceType>air</TheDistanceType>
  </Volunteer>
  <Volunteer>
    <Id>308207814</Id>
    <Name>yoni abergil</Name>
    <PhoneNumber>0538008664</PhoneNumber>
    <Email>0538008664@gmail.com</Email>
    <Password>sv386;33;997</Password>
    <Address>HaPalmach 11, Jerusalem, Israel</Address>
    <Latitude>31.78</Latitude>
    <Longitude>35.1984</Longitude>
    <Role>volunteer</Role>
    <Active>true</Active>
    <MaxDistance>1637206050</MaxDistance>
    <TheDistanceType>air</TheDistanceType>
  </Volunteer>
  <Volunteer>
    <Id>226495112</Id>
    <Name>lior haddad</Name>
    <PhoneNumber>0513474517</PhoneNumber>
    <Email>0513474517@gmail.com</Email>
    <Password>sv38467:784:</Password>
    <Address>Keren HaYesod 90, Jerusalem, Israel</Address>
    <Latitude>31.762</Latitude>
    <Longitude>35.2075</Longitude>
    <Role>volunteer</Role>
    <Active>true</Active>
    <MaxDistance>1059853856</MaxDistance>
    <TheDistanceType>air</TheDistanceType>
  </Volunteer>
  <Volunteer>
    <Id>383666011</Id>
    <Name>rivka azrad</Name>
    <PhoneNumber>0563738276</PhoneNumber>
    <Email>0563738276@gmail.com</Email>
    <Password>sv3896:6;5:9</Password>
    <Address>Hapisga 30, Jerusalem, Israel</Address>
    <Latitude>31.78</Latitude>
    <Longitude>35.21</Longitude>
    <Role>volunteer</Role>
    <Active>true</Active>
    <MaxDistance>58192437</MaxDistance>
    <TheDistanceType>air</TheDistanceType>
  </Volunteer>
</ArrayOfVolunteer>