<?xml version="1.0" encoding="utf-8"?>
<ArrayOfVolunteer xmlns:xsi="http://www.w3.org/2001/XMLSchema-instance" xmlns:xsd="http://www.w3.org/2001/XMLSchema">
  <Volunteer>
    <Id>218372043</Id>
    <Name>Dani Levy</Name>
    <PhoneNumber>0579523818</PhoneNumber>
    <Email>0579523818@gmail.com</Email>
    <Password>sv38:&lt;856;4;</Password>
    <Address>King George 1, Jerusalem, Israel</Address>
    <Latitude>31.776</Latitude>
    <Longitude>35.2218</Longitude>
    <Role>manager</Role>
    <Active>true</Active>
    <MaxDistance>1242116926</MaxDistance>
    <TheDistanceType>air</TheDistanceType>
  </Volunteer>
  <Volunteer>
    <Id>211722251</Id>
    <Name>Yair Cohen</Name>
    <PhoneNumber>0520862721</PhoneNumber>
    <Email>0520862721@gmail.com</Email>
    <Password>sv3853;95:54</Password>
    <Address>Agripas 45, Jerusalem, Israel</Address>
    <Latitude>31.777</Latitude>
    <Longitude>35.2212</Longitude>
    <Role>volunteer</Role>
    <Active>true</Active>
    <MaxDistance>592029977</MaxDistance>
    <TheDistanceType>air</TheDistanceType>
  </Volunteer>
  <Volunteer>
    <Id>235246881</Id>
    <Name>Ariela Levin</Name>
    <PhoneNumber>0531132329</PhoneNumber>
    <Email>0531132329@gmail.com</Email>
    <Password>sv386446565&lt;</Password>
    <Address>Ben Yehuda 67, Jerusalem, Israel</Address>
    <Latitude>31.779</Latitude>
    <Longitude>35.2135</Longitude>
    <Role>volunteer</Role>
    <Active>true</Active>
    <MaxDistance>559332299</MaxDistance>
    <TheDistanceType>air</TheDistanceType>
  </Volunteer>
  <Volunteer>
    <Id>208979633</Id>
    <Name>Dina Klein</Name>
    <PhoneNumber>0565824572</PhoneNumber>
    <Email>0565824572@gmail.com</Email>
    <Password>sv3898;578:5</Password>
    <Address>HaNeviim 89, Jerusalem, Israel</Address>
    <Latitude>31.783</Latitude>
    <Longitude>35.2143</Longitude>
    <Role>volunteer</Role>
    <Active>true</Active>
    <MaxDistance>1948203493</MaxDistance>
    <TheDistanceType>air</TheDistanceType>
  </Volunteer>
  <Volunteer>
    <Id>208773994</Id>
    <Name>Shira Israelof</Name>
    <PhoneNumber>0592206724</PhoneNumber>
    <Email>0592206724@gmail.com</Email>
    <Password>sv38&lt;5539:57</Password>
    <Address>Yad Harutsim 101, Jerusalem, Israel</Address>
    <Latitude>31.791</Latitude>
    <Longitude>35.2007</Longitude>
    <Role>volunteer</Role>
    <Active>true</Active>
    <MaxDistance>762688291</MaxDistance>
    <TheDistanceType>air</TheDistanceType>
  </Volunteer>
  <Volunteer>
    <Id>322638370</Id>
    <Name>david azrad</Name>
    <PhoneNumber>0555991354</PhoneNumber>
    <Email>0555991354@gmail.com</Email>
    <Password>sv3888&lt;&lt;4687</Password>
    <Address>Malha Rd 33, Jerusalem, Israel</Address>
    <Latitude>31.75</Latitude>
    <Longitude>35.1907</Longitude>
    <Role>volunteer</Role>
    <Active>true</Active>
    <MaxDistance>1674237829</MaxDistance>
    <TheDistanceType>air</TheDistanceType>
  </Volunteer>
  <Volunteer>
    <Id>316529080</Id>
    <Name>miri levi</Name>
    <PhoneNumber>0546879872</PhoneNumber>
    <Email>0546879872@gmail.com</Email>
    <Password>sv3879;:&lt;;:5</Password>
    <Address>Harav Kook 2, Jerusalem, Israel</Address>
    <Latitude>31.768</Latitude>
    <Longitude>35.2091</Longitude>
    <Role>volunteer</Role>
    <Active>true</Active>
    <MaxDistance>1220554332</MaxDistance>
    <TheDistanceType>air</TheDistanceType>
  </Volunteer>
  <Volunteer>
    <Id>241441864</Id>
    <Name>amir shalom</Name>
    <PhoneNumber>0546254953</PhoneNumber>
    <Email>0546254953@gmail.com</Email>
    <Password>sv3879587&lt;86</Password>
    <Address>Hillel 40, Jerusalem, Israel</Address>
    <Latitude>31.778</Latitude>
    <Longitude>35.2181</Longitude>
    <Role>volunteer</Role>
    <Active>true</Active>
    <MaxDistance>1857962794</MaxDistance>
    <TheDistanceType>air</TheDistanceType>
  </Volunteer>
  <Volunteer>
    <Id>331295121</Id>
    <Name>ronit shahar</Name>
    <PhoneNumber>0572652822</PhoneNumber>
    <Email>0572652822@gmail.com</Email>
    <Password>sv38:5985;55</Password>
    <Address>Davidka Square 5, Jerusalem, Israel</Address>
    <Latitude>31.761</Latitude>
    <Longitude>35.2133</Longitude>
    <Role>volunteer</Role>
    <Active>true</Active>
    <MaxDistance>482363542</MaxDistance>
    <TheDistanceType>air</TheDistanceType>
  </Volunteer>
  <Volunteer>
    <Id>215041013</Id>
    <Name>itay ben-david</Name>
    <PhoneNumber>0515676694</PhoneNumber>
    <Email>0515676694@gmail.com</Email>
    <Password>sv38489:99&lt;7</Password>
    <Address>Ramban 21, Jerusalem, Israel</Address>
    <Latitude>31.773</Latitude>
    <Longitude>35.2046</Longitude>
    <Role>volunteer</Role>
    <Active>true</Active>
    <MaxDistance>386376517</MaxDistance>
    <TheDistanceType>air</TheDistanceType>
  </Volunteer>
  <Volunteer>
    <Id>214363350</Id>
    <Name>maya peretz</Name>
    <PhoneNumber>0555821189</PhoneNumber>
    <Email>0555821189@gmail.com</Email>
    <Password>sv3888;544;&lt;</Password>
    <Address>Tchernichovsky 37, Jerusalem, Israel</Address>
    <Latitude>31.759</Latitude>
    <Longitude>35.215</Longitude>
    <Role>volunteer</Role>
    <Active>true</Active>
    <MaxDistance>2002470187</MaxDistance>
    <TheDistanceType>air</TheDistanceType>
  </Volunteer>
  <Volunteer>
    <Id>215089632</Id>
    <Name>yoni abergil</Name>
    <PhoneNumber>0585976294</PhoneNumber>
    <Email>0585976294@gmail.com</Email>
    <Password>sv38;8&lt;:95&lt;7</Password>
    <Address>HaPalmach 11, Jerusalem, Israel</Address>
    <Latitude>31.78</Latitude>
    <Longitude>35.1984</Longitude>
    <Role>volunteer</Role>
    <Active>true</Active>
    <MaxDistance>148163760</MaxDistance>
    <TheDistanceType>air</TheDistanceType>
  </Volunteer>
  <Volunteer>
    <Id>327887360</Id>
    <Name>lior haddad</Name>
    <PhoneNumber>0545142880</PhoneNumber>
    <Email>0545142880@gmail.com</Email>
    <Password>sv3878475;;3</Password>
    <Address>Keren HaYesod 90, Jerusalem, Israel</Address>
    <Latitude>31.762</Latitude>
    <Longitude>35.2075</Longitude>
    <Role>volunteer</Role>
    <Active>true</Active>
    <MaxDistance>1017391383</MaxDistance>
    <TheDistanceType>air</TheDistanceType>
  </Volunteer>
  <Volunteer>
    <Id>326549441</Id>
    <Name>rivka azrad</Name>
    <PhoneNumber>0520526786</PhoneNumber>
    <Email>0520526786@gmail.com</Email>
    <Password>sv3853859:;9</Password>
    <Address>Hapisga 30, Jerusalem, Israel</Address>
    <Latitude>31.78</Latitude>
    <Longitude>35.21</Longitude>
    <Role>volunteer</Role>
    <Active>true</Active>
    <MaxDistance>1750914592</MaxDistance>
    <TheDistanceType>air</TheDistanceType>
  </Volunteer>
  <Volunteer>
    <Id>207249780</Id>
    <Name>yael cohen</Name>
    <PhoneNumber>0554777159</PhoneNumber>
    <Email>0554777159@gmail.com</Email>
    <Password>&lt;8kjkim&amp;Copj</Password>
    <Address>Emek Refaim 15, Jerusalem, Israel</Address>
    <Latitude>31.7654991</Latitude>
    <Longitude>35.2219079</Longitude>
    <Role>volunteer</Role>
    <Active>true</Active>
    <MaxDistance>2124252795</MaxDistance>
    <TheDistanceType>air</TheDistanceType>
  </Volunteer>
</ArrayOfVolunteer>