<?xml version="1.0" encoding="utf-8"?>
<ArrayOfVolunteer xmlns:xsi="http://www.w3.org/2001/XMLSchema-instance" xmlns:xsd="http://www.w3.org/2001/XMLSchema">
  <Volunteer>
    <Id>318207149</Id>
    <Name>Eli Amar</Name>
    <PhoneNumber>0597387030</PhoneNumber>
    <Email>0597387030@gmail.com</Email>
    <Password>sV38&lt;:6;:363-</Password>
    <Address>Jaffa 23, Jerusalem, Israel</Address>
    <Latitude>31.771</Latitude>
    <Longitude>35.2137</Longitude>
    <Role>volunteer</Role>
    <Active>true</Active>
    <MaxDistance>1074981220</MaxDistance>
    <TheDistanceType>air</TheDistanceType>
  </Volunteer>
  <Volunteer>
    <Id>211722251</Id>
    <Name>Yair Cohen</Name>
    <PhoneNumber>0589328046</PhoneNumber>
    <Email>0589328046@gmail.com</Email>
    <Password>sV38;&lt;65;379-</Password>
    <Address>Agripas 45, Jerusalem, Israel</Address>
    <Latitude>31.777</Latitude>
    <Longitude>35.2212</Longitude>
    <Role>volunteer</Role>
    <Active>true</Active>
    <MaxDistance>774973760</MaxDistance>
    <TheDistanceType>air</TheDistanceType>
  </Volunteer>
  <Volunteer>
    <Id>235246881</Id>
    <Name>Ariela Levin</Name>
    <PhoneNumber>0512269108</PhoneNumber>
    <Email>0512269108@gmail.com</Email>
    <Password>sV384559&lt;43;-</Password>
    <Address>Ben Yehuda 67, Jerusalem, Israel</Address>
    <Latitude>31.779</Latitude>
    <Longitude>35.2135</Longitude>
    <Role>volunteer</Role>
    <Active>true</Active>
    <MaxDistance>1469792305</MaxDistance>
    <TheDistanceType>air</TheDistanceType>
  </Volunteer>
  <Volunteer>
    <Id>208979633</Id>
    <Name>Dina Klein</Name>
    <PhoneNumber>0511446337</PhoneNumber>
    <Email>0511446337@gmail.com</Email>
    <Password>sV384477966:-</Password>
    <Address>HaNeviim 89, Jerusalem, Israel</Address>
    <Latitude>31.783</Latitude>
    <Longitude>35.2143</Longitude>
    <Role>volunteer</Role>
    <Active>true</Active>
    <MaxDistance>1720733313</MaxDistance>
    <TheDistanceType>air</TheDistanceType>
  </Volunteer>
  <Volunteer>
    <Id>208773994</Id>
    <Name>Shira Israelof</Name>
    <PhoneNumber>0527463920</PhoneNumber>
    <Email>0527463920@gmail.com</Email>
    <Password>sV385:796&lt;53-</Password>
    <Address>Yad Harutsim 101, Jerusalem, Israel</Address>
    <Latitude>31.791</Latitude>
    <Longitude>35.2007</Longitude>
    <Role>volunteer</Role>
    <Active>true</Active>
    <MaxDistance>806538729</MaxDistance>
    <TheDistanceType>air</TheDistanceType>
  </Volunteer>
  <Volunteer>
    <Id>207249780</Id>
    <Name>yael cohen</Name>
    <PhoneNumber>0519624973</PhoneNumber>
    <Email>0519624973@gmail.com</Email>
    <Password>sV384&lt;957&lt;:6-</Password>
    <Address>Emek Refaim 15, Jerusalem, Israel</Address>
    <Latitude>31.758</Latitude>
    <Longitude>35.2072</Longitude>
    <Role>volunteer</Role>
    <Active>true</Active>
    <MaxDistance>288626754</MaxDistance>
    <TheDistanceType>air</TheDistanceType>
  </Volunteer>
  <Volunteer>
    <Id>322638370</Id>
    <Name>david azrad</Name>
    <PhoneNumber>0578592083</PhoneNumber>
    <Email>0578592083@gmail.com</Email>
    <Password>sV38:;8&lt;53;6-</Password>
    <Address>Malha Rd 33, Jerusalem, Israel</Address>
    <Latitude>31.75</Latitude>
    <Longitude>35.1907</Longitude>
    <Role>volunteer</Role>
    <Active>true</Active>
    <MaxDistance>946915983</MaxDistance>
    <TheDistanceType>air</TheDistanceType>
  </Volunteer>
  <Volunteer>
    <Id>316529080</Id>
    <Name>miri levi</Name>
    <PhoneNumber>0526607417</PhoneNumber>
    <Email>0526607417@gmail.com</Email>
    <Password>sV385993:74:-</Password>
    <Address>Harav Kook 2, Jerusalem, Israel</Address>
    <Latitude>31.768</Latitude>
    <Longitude>35.2091</Longitude>
    <Role>volunteer</Role>
    <Active>true</Active>
    <MaxDistance>1271936316</MaxDistance>
    <TheDistanceType>air</TheDistanceType>
  </Volunteer>
  <Volunteer>
    <Id>241441864</Id>
    <Name>amir shalom</Name>
    <PhoneNumber>0580719736</PhoneNumber>
    <Email>0580719736@gmail.com</Email>
    <Password>sV38;3:4&lt;:69-</Password>
    <Address>Hillel 40, Jerusalem, Israel</Address>
    <Latitude>31.778</Latitude>
    <Longitude>35.2181</Longitude>
    <Role>volunteer</Role>
    <Active>true</Active>
    <MaxDistance>1183862047</MaxDistance>
    <TheDistanceType>air</TheDistanceType>
  </Volunteer>
  <Volunteer>
    <Id>331295121</Id>
    <Name>ronit shahar</Name>
    <PhoneNumber>0583535390</PhoneNumber>
    <Email>0583535390@gmail.com</Email>
    <Password>sV38;68686&lt;3-</Password>
    <Address>Davidka Square 5, Jerusalem, Israel</Address>
    <Latitude>31.761</Latitude>
    <Longitude>35.2133</Longitude>
    <Role>volunteer</Role>
    <Active>true</Active>
    <MaxDistance>70869219</MaxDistance>
    <TheDistanceType>air</TheDistanceType>
  </Volunteer>
  <Volunteer>
    <Id>215041013</Id>
    <Name>itay ben-david</Name>
    <PhoneNumber>0520187817</PhoneNumber>
    <Email>0520187817@gmail.com</Email>
    <Password>sV38534;:;4:-</Password>
    <Address>Ramban 21, Jerusalem, Israel</Address>
    <Latitude>31.773</Latitude>
    <Longitude>35.2046</Longitude>
    <Role>volunteer</Role>
    <Active>true</Active>
    <MaxDistance>1979004114</MaxDistance>
    <TheDistanceType>air</TheDistanceType>
  </Volunteer>
  <Volunteer>
    <Id>214363350</Id>
    <Name>maya peretz</Name>
    <PhoneNumber>0549116549</PhoneNumber>
    <Email>0549116549@gmail.com</Email>
    <Password>sV387&lt;44987&lt;-</Password>
    <Address>Tchernichovsky 37, Jerusalem, Israel</Address>
    <Latitude>31.759</Latitude>
    <Longitude>35.215</Longitude>
    <Role>volunteer</Role>
    <Active>true</Active>
    <MaxDistance>651923880</MaxDistance>
    <TheDistanceType>air</TheDistanceType>
  </Volunteer>
  <Volunteer>
    <Id>215089632</Id>
    <Name>yoni abergil</Name>
    <PhoneNumber>0564756728</PhoneNumber>
    <Email>0564756728@gmail.com</Email>
    <Password>sV3897:89:5;-</Password>
    <Address>HaPalmach 11, Jerusalem, Israel</Address>
    <Latitude>31.78</Latitude>
    <Longitude>35.1984</Longitude>
    <Role>volunteer</Role>
    <Active>true</Active>
    <MaxDistance>1040626213</MaxDistance>
    <TheDistanceType>air</TheDistanceType>
  </Volunteer>
  <Volunteer>
    <Id>327887360</Id>
    <Name>lior haddad</Name>
    <PhoneNumber>0521053805</PhoneNumber>
    <Email>0521053805@gmail.com</Email>
    <Password>sV3854386;38-</Password>
    <Address>Keren HaYesod 90, Jerusalem, Israel</Address>
    <Latitude>31.762</Latitude>
    <Longitude>35.2075</Longitude>
    <Role>volunteer</Role>
    <Active>true</Active>
    <MaxDistance>753862831</MaxDistance>
    <TheDistanceType>air</TheDistanceType>
  </Volunteer>
  <Volunteer>
    <Id>326549441</Id>
    <Name>rivka azrad</Name>
    <PhoneNumber>0541929061</PhoneNumber>
    <Email>0541929061@gmail.com</Email>
    <Password>sV3874&lt;5&lt;394-</Password>
    <Address>Hapisga 30, Jerusalem, Israel</Address>
    <Latitude>31.78</Latitude>
    <Longitude>35.21</Longitude>
    <Role>volunteer</Role>
    <Active>true</Active>
    <MaxDistance>56910986</MaxDistance>
    <TheDistanceType>air</TheDistanceType>
  </Volunteer>
  <Volunteer>
    <Id>218372043</Id>
    <Name>Dani Levy</Name>
    <PhoneNumber>0527809606</PhoneNumber>
    <Email>0527809606@gmail.com</Email>
    <Password>383;&lt;594;;-</Password>
    <Address>King George 1, Jerusalem, Israel</Address>
    <Latitude>31.7829393</Latitude>
    <Longitude>35.2177533</Longitude>
    <Role>manager</Role>
    <Active>true</Active>
    <MaxDistance>1545134004</MaxDistance>
    <TheDistanceType>air</TheDistanceType>
  </Volunteer>
  <Volunteer>
    <Id>215041013</Id>
    <Name>itay ben-david</Name>
    <PhoneNumber>0592732770</PhoneNumber>
    <Email>0592732770@gmail.com</Email>
    <Password>383;&lt;594;;-</Password>
    <Address>Ramban 21, Jerusalem, Israel</Address>
    <Latitude>31.774589</Latitude>
    <Longitude>35.2154986</Longitude>
    <Role>volunteer</Role>
    <Active>true</Active>
    <MaxDistance>1577157745</MaxDistance>
    <TheDistanceType>air</TheDistanceType>
  </Volunteer>
  <Volunteer>
    <Id>214763252</Id>
    <Name>orya</Name>
    <PhoneNumber>0508926188</PhoneNumber>
    <Email>orya@gmail.com</Email>
    <Password>&lt;s-(tkTp</Password>
    <Address>HaPalmach 11, Jerusalem, Israel</Address>
    <Latitude>31.7678369</Latitude>
    <Longitude>35.2127281</Longitude>
    <Role>volunteer</Role>
    <Active>false</Active>
    <MaxDistance>56666666666666</MaxDistance>
    <TheDistanceType>air</TheDistanceType>
  </Volunteer>
  <Volunteer>
    <Id>215041013</Id>
    <Name>itay ben-david</Name>
    <PhoneNumber>0520187817</PhoneNumber>
    <Email>0520187817@gmail.com</Email>
    <Password>383;&lt;594;;-</Password>
    <Address>Ramban 21, Jerusalem, Israel</Address>
    <Latitude>31.774589</Latitude>
    <Longitude>35.2154986</Longitude>
    <Role>manager</Role>
    <Active>true</Active>
    <MaxDistance>1979004114</MaxDistance>
    <TheDistanceType>air</TheDistanceType>
  </Volunteer>
  <Volunteer>
    <Id>218372043</Id>
    <Name>Dani Levy</Name>
    <PhoneNumber>0531470455</PhoneNumber>
    <Email>0531470455@gmail.com</Email>
    <Password>383;&lt;594;;-</Password>
    <Address>King George 1, Jerusalem, Israel</Address>
    <Latitude>31.7829393</Latitude>
    <Longitude>35.2177533</Longitude>
    <Role>manager</Role>
    <Active>true</Active>
    <MaxDistance>720820332</MaxDistance>
    <TheDistanceType>air</TheDistanceType>
  </Volunteer>
  <Volunteer>
    <Id>208979633</Id>
    <Name>Hodaia </Name>
    <PhoneNumber>0519306581</PhoneNumber>
    <Email>0519306581@gmail.com</Email>
    <Password>sV384&lt;6398;4-</Password>
    <Address>HaNeviim 89, Jerusalem, Israel</Address>
    <Latitude>31.7836988</Latitude>
    <Longitude>35.226051</Longitude>
    <Role>volunteer</Role>
    <Active>true</Active>
    <MaxDistance>1517897095</MaxDistance>
    <TheDistanceType>air</TheDistanceType>
  </Volunteer>
</ArrayOfVolunteer>