<?xml version="1.0" encoding="utf-8"?>
<ArrayOfVolunteer xmlns:xsi="http://www.w3.org/2001/XMLSchema-instance" xmlns:xsd="http://www.w3.org/2001/XMLSchema">
  <Volunteer>
    <Id>318207149</Id>
    <Name>Eli Amar</Name>
    <PhoneNumber>0542387952</PhoneNumber>
    <Email>0542387952@gmail.com</Email>
    <Password>sV38756;:&lt;85-</Password>
    <Address>Jaffa 23, Jerusalem, Israel</Address>
    <Latitude>31.771</Latitude>
    <Longitude>35.2137</Longitude>
    <Role>volunteer</Role>
    <Active>true</Active>
    <MaxDistance>1934581326</MaxDistance>
    <TheDistanceType>air</TheDistanceType>
  </Volunteer>
  <Volunteer>
    <Id>211722251</Id>
    <Name>Yair Cohen</Name>
    <PhoneNumber>0550435065</PhoneNumber>
    <Email>0550435065@gmail.com</Email>
    <Password>sV3883768398-</Password>
    <Address>Agripas 45, Jerusalem, Israel</Address>
    <Latitude>31.777</Latitude>
    <Longitude>35.2212</Longitude>
    <Role>volunteer</Role>
    <Active>true</Active>
    <MaxDistance>2041764655</MaxDistance>
    <TheDistanceType>air</TheDistanceType>
  </Volunteer>
  <Volunteer>
    <Id>235246881</Id>
    <Name>Ariela Levin</Name>
    <PhoneNumber>0559957054</PhoneNumber>
    <Email>0559957054@gmail.com</Email>
    <Password>sV388&lt;&lt;8:387-</Password>
    <Address>Ben Yehuda 67, Jerusalem, Israel</Address>
    <Latitude>31.779</Latitude>
    <Longitude>35.2135</Longitude>
    <Role>volunteer</Role>
    <Active>true</Active>
    <MaxDistance>889049485</MaxDistance>
    <TheDistanceType>air</TheDistanceType>
  </Volunteer>
  <Volunteer>
    <Id>208979633</Id>
    <Name>Dina Klein</Name>
    <PhoneNumber>0542253881</PhoneNumber>
    <Email>0542253881@gmail.com</Email>
    <Password>sV3875586;;4-</Password>
    <Address>HaNeviim 89, Jerusalem, Israel</Address>
    <Latitude>31.783</Latitude>
    <Longitude>35.2143</Longitude>
    <Role>volunteer</Role>
    <Active>true</Active>
    <MaxDistance>297832544</MaxDistance>
    <TheDistanceType>air</TheDistanceType>
  </Volunteer>
  <Volunteer>
    <Id>208773994</Id>
    <Name>Shira Israelof</Name>
    <PhoneNumber>0525136587</PhoneNumber>
    <Email>0525136587@gmail.com</Email>
    <Password>sV38584698;:-</Password>
    <Address>Yad Harutsim 101, Jerusalem, Israel</Address>
    <Latitude>31.791</Latitude>
    <Longitude>35.2007</Longitude>
    <Role>volunteer</Role>
    <Active>true</Active>
    <MaxDistance>781743196</MaxDistance>
    <TheDistanceType>air</TheDistanceType>
  </Volunteer>
  <Volunteer>
    <Id>207249780</Id>
    <Name>yael cohen</Name>
    <PhoneNumber>0512112741</PhoneNumber>
    <Email>0512112741@gmail.com</Email>
    <Password>sV3845445:74-</Password>
    <Address>Emek Refaim 15, Jerusalem, Israel</Address>
    <Latitude>31.758</Latitude>
    <Longitude>35.2072</Longitude>
    <Role>volunteer</Role>
    <Active>true</Active>
    <MaxDistance>1823210646</MaxDistance>
    <TheDistanceType>air</TheDistanceType>
  </Volunteer>
  <Volunteer>
    <Id>322638370</Id>
    <Name>david azrad</Name>
    <PhoneNumber>0591975713</PhoneNumber>
    <Email>0591975713@gmail.com</Email>
    <Password>sV38&lt;4&lt;:8:46-</Password>
    <Address>Malha Rd 33, Jerusalem, Israel</Address>
    <Latitude>31.75</Latitude>
    <Longitude>35.1907</Longitude>
    <Role>volunteer</Role>
    <Active>true</Active>
    <MaxDistance>1002483158</MaxDistance>
    <TheDistanceType>air</TheDistanceType>
  </Volunteer>
  <Volunteer>
    <Id>316529080</Id>
    <Name>miri levi</Name>
    <PhoneNumber>0581592682</PhoneNumber>
    <Email>0581592682@gmail.com</Email>
    <Password>sV38;48&lt;59;5-</Password>
    <Address>Harav Kook 2, Jerusalem, Israel</Address>
    <Latitude>31.768</Latitude>
    <Longitude>35.2091</Longitude>
    <Role>volunteer</Role>
    <Active>true</Active>
    <MaxDistance>1332227453</MaxDistance>
    <TheDistanceType>air</TheDistanceType>
  </Volunteer>
  <Volunteer>
    <Id>241441864</Id>
    <Name>amir shalom</Name>
    <PhoneNumber>0568397910</PhoneNumber>
    <Email>0568397910@gmail.com</Email>
    <Password>sV389;6&lt;:&lt;43-</Password>
    <Address>Hillel 40, Jerusalem, Israel</Address>
    <Latitude>31.778</Latitude>
    <Longitude>35.2181</Longitude>
    <Role>volunteer</Role>
    <Active>true</Active>
    <MaxDistance>1775052451</MaxDistance>
    <TheDistanceType>air</TheDistanceType>
  </Volunteer>
  <Volunteer>
    <Id>331295121</Id>
    <Name>ronit shahar</Name>
    <PhoneNumber>0554701287</PhoneNumber>
    <Email>0554701287@gmail.com</Email>
    <Password>sV3887:345;:-</Password>
    <Address>Davidka Square 5, Jerusalem, Israel</Address>
    <Latitude>31.761</Latitude>
    <Longitude>35.2133</Longitude>
    <Role>volunteer</Role>
    <Active>true</Active>
    <MaxDistance>782534190</MaxDistance>
    <TheDistanceType>air</TheDistanceType>
  </Volunteer>
  <Volunteer>
    <Id>215041013</Id>
    <Name>itay ben-david</Name>
    <PhoneNumber>0570556930</PhoneNumber>
    <Email>0570556930@gmail.com</Email>
    <Password>sV38:3889&lt;63-</Password>
    <Address>Ramban 21, Jerusalem, Israel</Address>
    <Latitude>31.773</Latitude>
    <Longitude>35.2046</Longitude>
    <Role>volunteer</Role>
    <Active>true</Active>
    <MaxDistance>608720593</MaxDistance>
    <TheDistanceType>air</TheDistanceType>
  </Volunteer>
  <Volunteer>
    <Id>214363350</Id>
    <Name>maya peretz</Name>
    <PhoneNumber>0516765886</PhoneNumber>
    <Email>0516765886@gmail.com</Email>
    <Password>sV3849:98;;9-</Password>
    <Address>Tchernichovsky 37, Jerusalem, Israel</Address>
    <Latitude>31.759</Latitude>
    <Longitude>35.215</Longitude>
    <Role>volunteer</Role>
    <Active>true</Active>
    <MaxDistance>676829559</MaxDistance>
    <TheDistanceType>air</TheDistanceType>
  </Volunteer>
  <Volunteer>
    <Id>215089632</Id>
    <Name>yoni abergil</Name>
    <PhoneNumber>0539269851</PhoneNumber>
    <Email>0539269851@gmail.com</Email>
    <Password>sV386&lt;59&lt;;84-</Password>
    <Address>HaPalmach 11, Jerusalem, Israel</Address>
    <Latitude>31.78</Latitude>
    <Longitude>35.1984</Longitude>
    <Role>volunteer</Role>
    <Active>true</Active>
    <MaxDistance>123223897</MaxDistance>
    <TheDistanceType>air</TheDistanceType>
  </Volunteer>
  <Volunteer>
    <Id>327887360</Id>
    <Name>lior haddad</Name>
    <PhoneNumber>0529201520</PhoneNumber>
    <Email>0529201520@gmail.com</Email>
    <Password>sV385&lt;534853-</Password>
    <Address>Keren HaYesod 90, Jerusalem, Israel</Address>
    <Latitude>31.762</Latitude>
    <Longitude>35.2075</Longitude>
    <Role>volunteer</Role>
    <Active>true</Active>
    <MaxDistance>1543232993</MaxDistance>
    <TheDistanceType>air</TheDistanceType>
  </Volunteer>
  <Volunteer>
    <Id>326549441</Id>
    <Name>rivka azrad</Name>
    <PhoneNumber>0581807939</PhoneNumber>
    <Email>0581807939@gmail.com</Email>
    <Password>sV38;4;3:&lt;6&lt;-</Password>
    <Address>Hapisga 30, Jerusalem, Israel</Address>
    <Latitude>31.78</Latitude>
    <Longitude>35.21</Longitude>
    <Role>volunteer</Role>
    <Active>true</Active>
    <MaxDistance>1631615048</MaxDistance>
    <TheDistanceType>air</TheDistanceType>
  </Volunteer>
  <Volunteer>
    <Id>218372043</Id>
    <Name>Dani Levy</Name>
    <PhoneNumber>0521005136</PhoneNumber>
    <Email>0521005136@gmail.com</Email>
    <Password>383;&lt;594;;-</Password>
    <Address>King George 1, Jerusalem, Israel</Address>
    <Latitude>31.776</Latitude>
    <Longitude>35.2218</Longitude>
    <Role>manager</Role>
    <Active>true</Active>
    <MaxDistance>1174089776</MaxDistance>
    <TheDistanceType>air</TheDistanceType>
  </Volunteer>
</ArrayOfVolunteer>