<?xml version="1.0" encoding="utf-8"?>
<ArrayOfVolunteer xmlns:xsi="http://www.w3.org/2001/XMLSchema-instance" xmlns:xsd="http://www.w3.org/2001/XMLSchema">
  <Volunteer>
    <Id>331071983</Id>
    <Name>Dani Levy</Name>
    <PhoneNumber>0573725424</PhoneNumber>
    <Email>0573725424@gmail.com</Email>
    <Password>sv38:6:58757</Password>
    <Address>King George 1, Jerusalem, Israel</Address>
    <Latitude>31.776</Latitude>
    <Longitude>35.2218</Longitude>
    <Role>manager</Role>
    <Active>true</Active>
    <MaxDistance>2014123965</MaxDistance>
    <TheDistanceType>air</TheDistanceType>
  </Volunteer>
  <Volunteer>
    <Id>232652642</Id>
    <Name>Eli Amar</Name>
    <PhoneNumber>0578143493</PhoneNumber>
    <Email>0578143493@gmail.com</Email>
    <Password>sv38:;4767&lt;6</Password>
    <Address>Jaffa 23, Jerusalem, Israel</Address>
    <Latitude>31.771</Latitude>
    <Longitude>35.2137</Longitude>
    <Role>volunteer</Role>
    <Active>true</Active>
    <MaxDistance>787358963</MaxDistance>
    <TheDistanceType>air</TheDistanceType>
  </Volunteer>
  <Volunteer>
    <Id>370478710</Id>
    <Name>Yair Cohen</Name>
    <PhoneNumber>0572879843</PhoneNumber>
    <Email>0572879843@gmail.com</Email>
    <Password>sv38:5;:&lt;;76</Password>
    <Address>Agripas 45, Jerusalem, Israel</Address>
    <Latitude>31.777</Latitude>
    <Longitude>35.2212</Longitude>
    <Role>volunteer</Role>
    <Active>true</Active>
    <MaxDistance>565434598</MaxDistance>
    <TheDistanceType>air</TheDistanceType>
  </Volunteer>
  <Volunteer>
    <Id>310223188</Id>
    <Name>Ariela Levin</Name>
    <PhoneNumber>0561620271</PhoneNumber>
    <Email>0561620271@gmail.com</Email>
    <Password>sv38949535:4</Password>
    <Address>Ben Yehuda 67, Jerusalem, Israel</Address>
    <Latitude>31.779</Latitude>
    <Longitude>35.2135</Longitude>
    <Role>volunteer</Role>
    <Active>true</Active>
    <MaxDistance>1140477850</MaxDistance>
    <TheDistanceType>air</TheDistanceType>
  </Volunteer>
  <Volunteer>
    <Id>310567177</Id>
    <Name>Dina Klein</Name>
    <PhoneNumber>0536724970</PhoneNumber>
    <Email>0536724970@gmail.com</Email>
    <Password>sv3869:57&lt;:3</Password>
    <Address>HaNeviim 89, Jerusalem, Israel</Address>
    <Latitude>31.783</Latitude>
    <Longitude>35.2143</Longitude>
    <Role>volunteer</Role>
    <Active>true</Active>
    <MaxDistance>1130352625</MaxDistance>
    <TheDistanceType>air</TheDistanceType>
  </Volunteer>
  <Volunteer>
    <Id>391755404</Id>
    <Name>Shira Israelof</Name>
    <PhoneNumber>0544883364</PhoneNumber>
    <Email>0544883364@gmail.com</Email>
    <Password>sv3877;;6697</Password>
    <Address>Yad Harutsim 101, Jerusalem, Israel</Address>
    <Latitude>31.791</Latitude>
    <Longitude>35.2007</Longitude>
    <Role>volunteer</Role>
    <Active>true</Active>
    <MaxDistance>378612766</MaxDistance>
    <TheDistanceType>air</TheDistanceType>
  </Volunteer>
  <Volunteer>
    <Id>381769682</Id>
    <Name>yael cohen</Name>
    <PhoneNumber>0526050559</PhoneNumber>
    <Email>0526050559@gmail.com</Email>
    <Password>sv385938388&lt;</Password>
    <Address>Emek Refaim 15, Jerusalem, Israel</Address>
    <Latitude>31.758</Latitude>
    <Longitude>35.2072</Longitude>
    <Role>volunteer</Role>
    <Active>true</Active>
    <MaxDistance>1751752012</MaxDistance>
    <TheDistanceType>air</TheDistanceType>
  </Volunteer>
  <Volunteer>
    <Id>201890036</Id>
    <Name>david azrad</Name>
    <PhoneNumber>0595223936</PhoneNumber>
    <Email>0595223936@gmail.com</Email>
    <Password>sv38&lt;8556&lt;69</Password>
    <Address>Malha Rd 33, Jerusalem, Israel</Address>
    <Latitude>31.75</Latitude>
    <Longitude>35.1907</Longitude>
    <Role>volunteer</Role>
    <Active>true</Active>
    <MaxDistance>608404346</MaxDistance>
    <TheDistanceType>air</TheDistanceType>
  </Volunteer>
  <Volunteer>
    <Id>217022983</Id>
    <Name>miri levi</Name>
    <PhoneNumber>0577839233</PhoneNumber>
    <Email>0577839233@gmail.com</Email>
    <Password>sv38::;6&lt;566</Password>
    <Address>Harav Kook 2, Jerusalem, Israel</Address>
    <Latitude>31.768</Latitude>
    <Longitude>35.2091</Longitude>
    <Role>volunteer</Role>
    <Active>true</Active>
    <MaxDistance>1917547327</MaxDistance>
    <TheDistanceType>air</TheDistanceType>
  </Volunteer>
  <Volunteer>
    <Id>204898331</Id>
    <Name>amir shalom</Name>
    <PhoneNumber>0521430313</PhoneNumber>
    <Email>0521430313@gmail.com</Email>
    <Password>sv3854763646</Password>
    <Address>Hillel 40, Jerusalem, Israel</Address>
    <Latitude>31.778</Latitude>
    <Longitude>35.2181</Longitude>
    <Role>volunteer</Role>
    <Active>true</Active>
    <MaxDistance>816502070</MaxDistance>
    <TheDistanceType>air</TheDistanceType>
  </Volunteer>
  <Volunteer>
    <Id>300252846</Id>
    <Name>ronit shahar</Name>
    <PhoneNumber>0544854516</PhoneNumber>
    <Email>0544854516@gmail.com</Email>
    <Password>sv3877;87849</Password>
    <Address>Davidka Square 5, Jerusalem, Israel</Address>
    <Latitude>31.761</Latitude>
    <Longitude>35.2133</Longitude>
    <Role>volunteer</Role>
    <Active>true</Active>
    <MaxDistance>1043734302</MaxDistance>
    <TheDistanceType>air</TheDistanceType>
  </Volunteer>
  <Volunteer>
    <Id>257731859</Id>
    <Name>itay ben-david</Name>
    <PhoneNumber>0581465587</PhoneNumber>
    <Email>0581465587@gmail.com</Email>
    <Password>sv38;47988;:</Password>
    <Address>Ramban 21, Jerusalem, Israel</Address>
    <Latitude>31.773</Latitude>
    <Longitude>35.2046</Longitude>
    <Role>volunteer</Role>
    <Active>true</Active>
    <MaxDistance>697858367</MaxDistance>
    <TheDistanceType>air</TheDistanceType>
  </Volunteer>
  <Volunteer>
    <Id>354017220</Id>
    <Name>maya peretz</Name>
    <PhoneNumber>0596215196</PhoneNumber>
    <Email>0596215196@gmail.com</Email>
    <Password>sv38&lt;95484&lt;9</Password>
    <Address>Tchernichovsky 37, Jerusalem, Israel</Address>
    <Latitude>31.759</Latitude>
    <Longitude>35.215</Longitude>
    <Role>volunteer</Role>
    <Active>true</Active>
    <MaxDistance>2018690157</MaxDistance>
    <TheDistanceType>air</TheDistanceType>
  </Volunteer>
  <Volunteer>
    <Id>247128090</Id>
    <Name>yoni abergil</Name>
    <PhoneNumber>0563660126</PhoneNumber>
    <Email>0563660126@gmail.com</Email>
    <Password>sv3896993459</Password>
    <Address>HaPalmach 11, Jerusalem, Israel</Address>
    <Latitude>31.78</Latitude>
    <Longitude>35.1984</Longitude>
    <Role>volunteer</Role>
    <Active>true</Active>
    <MaxDistance>433151528</MaxDistance>
    <TheDistanceType>air</TheDistanceType>
  </Volunteer>
  <Volunteer>
    <Id>365533322</Id>
    <Name>lior haddad</Name>
    <PhoneNumber>0572682961</PhoneNumber>
    <Email>0572682961@gmail.com</Email>
    <Password>sv38:59;5&lt;94</Password>
    <Address>Keren HaYesod 90, Jerusalem, Israel</Address>
    <Latitude>31.762</Latitude>
    <Longitude>35.2075</Longitude>
    <Role>volunteer</Role>
    <Active>true</Active>
    <MaxDistance>444233397</MaxDistance>
    <TheDistanceType>air</TheDistanceType>
  </Volunteer>
  <Volunteer>
    <Id>347575795</Id>
    <Name>rivka azrad</Name>
    <PhoneNumber>0579315053</PhoneNumber>
    <Email>0579315053@gmail.com</Email>
    <Password>sv38:&lt;648386</Password>
    <Address>Hapisga 30, Jerusalem, Israel</Address>
    <Latitude>31.78</Latitude>
    <Longitude>35.21</Longitude>
    <Role>volunteer</Role>
    <Active>true</Active>
    <MaxDistance>1920364044</MaxDistance>
    <TheDistanceType>air</TheDistanceType>
  </Volunteer>
</ArrayOfVolunteer>