<?xml version="1.0" encoding="utf-8"?>
<ArrayOfVolunteer xmlns:xsi="http://www.w3.org/2001/XMLSchema-instance" xmlns:xsd="http://www.w3.org/2001/XMLSchema">
  <Volunteer>
    <Id>218372043</Id>
    <Name>Dani Levy</Name>
    <PhoneNumber>0574219798</PhoneNumber>
    <Email>0574219798@gmail.com</Email>
    <Password>383;&lt;594;;-</Password>
    <Address>King George 1, Jerusalem, Israel</Address>
    <Latitude>31.776</Latitude>
    <Longitude>35.2218</Longitude>
    <Role>manager</Role>
    <Active>true</Active>
    <MaxDistance>1786382364</MaxDistance>
    <TheDistanceType>air</TheDistanceType>
  </Volunteer>
  <Volunteer>
    <Id>318207149</Id>
    <Name>Eli Amar</Name>
    <PhoneNumber>0538083683</PhoneNumber>
    <Email>0538083683@gmail.com</Email>
    <Password>sV386;3;69;6-</Password>
    <Address>Jaffa 23, Jerusalem, Israel</Address>
    <Latitude>31.771</Latitude>
    <Longitude>35.2137</Longitude>
    <Role>volunteer</Role>
    <Active>true</Active>
    <MaxDistance>1554625960</MaxDistance>
    <TheDistanceType>air</TheDistanceType>
  </Volunteer>
  <Volunteer>
    <Id>211722251</Id>
    <Name>Yair Cohen</Name>
    <PhoneNumber>0559586903</PhoneNumber>
    <Email>0559586903@gmail.com</Email>
    <Password>sV388&lt;8;9&lt;36-</Password>
    <Address>Agripas 45, Jerusalem, Israel</Address>
    <Latitude>31.777</Latitude>
    <Longitude>35.2212</Longitude>
    <Role>volunteer</Role>
    <Active>true</Active>
    <MaxDistance>1684248854</MaxDistance>
    <TheDistanceType>air</TheDistanceType>
  </Volunteer>
  <Volunteer>
    <Id>235246881</Id>
    <Name>Ariela Levin</Name>
    <PhoneNumber>0527145367</PhoneNumber>
    <Email>0527145367@gmail.com</Email>
    <Password>sV385:47869:-</Password>
    <Address>Ben Yehuda 67, Jerusalem, Israel</Address>
    <Latitude>31.779</Latitude>
    <Longitude>35.2135</Longitude>
    <Role>volunteer</Role>
    <Active>true</Active>
    <MaxDistance>251315234</MaxDistance>
    <TheDistanceType>air</TheDistanceType>
  </Volunteer>
  <Volunteer>
    <Id>208979633</Id>
    <Name>Dina Klein</Name>
    <PhoneNumber>0543599563</PhoneNumber>
    <Email>0543599563@gmail.com</Email>
    <Password>sV38768&lt;&lt;896-</Password>
    <Address>HaNeviim 89, Jerusalem, Israel</Address>
    <Latitude>31.783</Latitude>
    <Longitude>35.2143</Longitude>
    <Role>volunteer</Role>
    <Active>true</Active>
    <MaxDistance>1194292940</MaxDistance>
    <TheDistanceType>air</TheDistanceType>
  </Volunteer>
  <Volunteer>
    <Id>208773994</Id>
    <Name>Shira Israelof</Name>
    <PhoneNumber>0584500213</PhoneNumber>
    <Email>0584500213@gmail.com</Email>
    <Password>sV38;7833546-</Password>
    <Address>Yad Harutsim 101, Jerusalem, Israel</Address>
    <Latitude>31.791</Latitude>
    <Longitude>35.2007</Longitude>
    <Role>volunteer</Role>
    <Active>true</Active>
    <MaxDistance>833189049</MaxDistance>
    <TheDistanceType>air</TheDistanceType>
  </Volunteer>
  <Volunteer>
    <Id>207249780</Id>
    <Name>yael cohen</Name>
    <PhoneNumber>0598654808</PhoneNumber>
    <Email>0598654808@gmail.com</Email>
    <Password>sV38&lt;;987;3;-</Password>
    <Address>Emek Refaim 15, Jerusalem, Israel</Address>
    <Latitude>31.758</Latitude>
    <Longitude>35.2072</Longitude>
    <Role>volunteer</Role>
    <Active>true</Active>
    <MaxDistance>220639174</MaxDistance>
    <TheDistanceType>air</TheDistanceType>
  </Volunteer>
  <Volunteer>
    <Id>322638370</Id>
    <Name>david azrad</Name>
    <PhoneNumber>0586968913</PhoneNumber>
    <Email>0586968913@gmail.com</Email>
    <Password>sV38;9&lt;9;&lt;46-</Password>
    <Address>Malha Rd 33, Jerusalem, Israel</Address>
    <Latitude>31.75</Latitude>
    <Longitude>35.1907</Longitude>
    <Role>volunteer</Role>
    <Active>true</Active>
    <MaxDistance>1718446099</MaxDistance>
    <TheDistanceType>air</TheDistanceType>
  </Volunteer>
  <Volunteer>
    <Id>316529080</Id>
    <Name>miri levi</Name>
    <PhoneNumber>0590073249</PhoneNumber>
    <Email>0590073249@gmail.com</Email>
    <Password>sV38&lt;33:657&lt;-</Password>
    <Address>Harav Kook 2, Jerusalem, Israel</Address>
    <Latitude>31.768</Latitude>
    <Longitude>35.2091</Longitude>
    <Role>volunteer</Role>
    <Active>true</Active>
    <MaxDistance>960665486</MaxDistance>
    <TheDistanceType>air</TheDistanceType>
  </Volunteer>
  <Volunteer>
    <Id>241441864</Id>
    <Name>amir shalom</Name>
    <PhoneNumber>0528085271</PhoneNumber>
    <Email>0528085271@gmail.com</Email>
    <Password>sV385;3;85:4-</Password>
    <Address>Hillel 40, Jerusalem, Israel</Address>
    <Latitude>31.778</Latitude>
    <Longitude>35.2181</Longitude>
    <Role>volunteer</Role>
    <Active>true</Active>
    <MaxDistance>1135908258</MaxDistance>
    <TheDistanceType>air</TheDistanceType>
  </Volunteer>
  <Volunteer>
    <Id>331295121</Id>
    <Name>ronit shahar</Name>
    <PhoneNumber>0594047530</PhoneNumber>
    <Email>0594047530@gmail.com</Email>
    <Password>sV38&lt;737:863-</Password>
    <Address>Davidka Square 5, Jerusalem, Israel</Address>
    <Latitude>31.761</Latitude>
    <Longitude>35.2133</Longitude>
    <Role>volunteer</Role>
    <Active>true</Active>
    <MaxDistance>749353034</MaxDistance>
    <TheDistanceType>air</TheDistanceType>
  </Volunteer>
  <Volunteer>
    <Id>215041013</Id>
    <Name>itay ben-david</Name>
    <PhoneNumber>0524280037</PhoneNumber>
    <Email>0524280037@gmail.com</Email>
    <Password>sV38575;336:-</Password>
    <Address>Ramban 21, Jerusalem, Israel</Address>
    <Latitude>31.773</Latitude>
    <Longitude>35.2046</Longitude>
    <Role>volunteer</Role>
    <Active>true</Active>
    <MaxDistance>1629834979</MaxDistance>
    <TheDistanceType>air</TheDistanceType>
  </Volunteer>
  <Volunteer>
    <Id>214363350</Id>
    <Name>maya peretz</Name>
    <PhoneNumber>0556691666</PhoneNumber>
    <Email>0556691666@gmail.com</Email>
    <Password>sV38899&lt;4999-</Password>
    <Address>Tchernichovsky 37, Jerusalem, Israel</Address>
    <Latitude>31.759</Latitude>
    <Longitude>35.215</Longitude>
    <Role>volunteer</Role>
    <Active>true</Active>
    <MaxDistance>583272136</MaxDistance>
    <TheDistanceType>air</TheDistanceType>
  </Volunteer>
  <Volunteer>
    <Id>215089632</Id>
    <Name>yoni abergil</Name>
    <PhoneNumber>0594101503</PhoneNumber>
    <Email>0594101503@gmail.com</Email>
    <Password>sV38&lt;7434836-</Password>
    <Address>HaPalmach 11, Jerusalem, Israel</Address>
    <Latitude>31.78</Latitude>
    <Longitude>35.1984</Longitude>
    <Role>volunteer</Role>
    <Active>true</Active>
    <MaxDistance>907905919</MaxDistance>
    <TheDistanceType>air</TheDistanceType>
  </Volunteer>
  <Volunteer>
    <Id>327887360</Id>
    <Name>lior haddad</Name>
    <PhoneNumber>0540560629</PhoneNumber>
    <Email>0540560629@gmail.com</Email>
    <Password>sV387389395&lt;-</Password>
    <Address>Keren HaYesod 90, Jerusalem, Israel</Address>
    <Latitude>31.762</Latitude>
    <Longitude>35.2075</Longitude>
    <Role>volunteer</Role>
    <Active>true</Active>
    <MaxDistance>1965380015</MaxDistance>
    <TheDistanceType>air</TheDistanceType>
  </Volunteer>
  <Volunteer>
    <Id>326549441</Id>
    <Name>rivka azrad</Name>
    <PhoneNumber>0591853881</PhoneNumber>
    <Email>0591853881@gmail.com</Email>
    <Password>Sdvvzrug45&amp;</Password>
    <Address>Hapisga 30, Jerusalem, Israel</Address>
    <Latitude>31.78</Latitude>
    <Longitude>35.21</Longitude>
    <Role>volunteer</Role>
    <Active>true</Active>
    <MaxDistance>1051920603</MaxDistance>
    <TheDistanceType>air</TheDistanceType>
  </Volunteer>
  <Volunteer>
    <Id>309366532</Id>
    <Name>Rivka Azrad</Name>
    <PhoneNumber>0508926188</PhoneNumber>
    <Email>rivkaazrad@gmail.com</Email>
    <Password>38:4;&lt;48;;-</Password>
    <Address>Hapisga 10, Jerusalem, Israel</Address>
    <Latitude>31.7683</Latitude>
    <Longitude>35.2137</Longitude>
    <Role>volunteer</Role>
    <Active>false</Active>
    <MaxDistance>60000000</MaxDistance>
    <TheDistanceType>air</TheDistanceType>
  </Volunteer>
  <Volunteer>
    <Id>214763252</Id>
    <Name>Oriya Yitzhaky</Name>
    <PhoneNumber>0504185888</PhoneNumber>
    <Email>aazrad@gmail.com</Email>
    <Password>38;9454964-</Password>
    <Address>Hapisga 15, Jerusalem, Israel</Address>
    <Latitude>31.7683</Latitude>
    <Longitude>35.2137</Longitude>
    <Role>volunteer</Role>
    <Active>false</Active>
    <MaxDistance xsi:nil="true" />
    <TheDistanceType>air</TheDistanceType>
  </Volunteer>
</ArrayOfVolunteer>