<?xml version="1.0" encoding="utf-8"?>
<ArrayOfVolunteer xmlns:xsi="http://www.w3.org/2001/XMLSchema-instance" xmlns:xsd="http://www.w3.org/2001/XMLSchema">
  <Volunteer>
    <Id>329308682</Id>
    <Name>Dani Levy</Name>
    <PhoneNumber>0555996876</PhoneNumber>
    <Email>0555996876@gmail.com</Email>
    <Password>sv3888&lt;&lt;9;:9</Password>
    <Address>Jerusalem, King George St 1, Israel</Address>
    <Latitude>31.776</Latitude>
    <Longitude>35.2218</Longitude>
    <Role>manager</Role>
    <Active>true</Active>
    <MaxDistance>691999496</MaxDistance>
    <TheDistanceType>air</TheDistanceType>
  </Volunteer>
  <Volunteer>
    <Id>358380665</Id>
    <Name>Eli Amar</Name>
    <PhoneNumber>0528049507</PhoneNumber>
    <Email>0528049507@gmail.com</Email>
    <Password>sv385;37&lt;83:</Password>
    <Address>Jerusalem, Jaffa St 23, Israel</Address>
    <Latitude>31.771</Latitude>
    <Longitude>35.2137</Longitude>
    <Role>volunteer</Role>
    <Active>true</Active>
    <MaxDistance>1081141402</MaxDistance>
    <TheDistanceType>air</TheDistanceType>
  </Volunteer>
  <Volunteer>
    <Id>275759490</Id>
    <Name>Yair Cohen</Name>
    <PhoneNumber>0594901771</PhoneNumber>
    <Email>0594901771@gmail.com</Email>
    <Password>sv38&lt;7&lt;34::4</Password>
    <Address>Jerusalem, Agripas St 45, Israel</Address>
    <Latitude>31.777</Latitude>
    <Longitude>35.2212</Longitude>
    <Role>volunteer</Role>
    <Active>true</Active>
    <MaxDistance>1468310308</MaxDistance>
    <TheDistanceType>air</TheDistanceType>
  </Volunteer>
  <Volunteer>
    <Id>372103712</Id>
    <Name>Ariela Levin</Name>
    <PhoneNumber>0586495448</PhoneNumber>
    <Email>0586495448@gmail.com</Email>
    <Password>sv38;97&lt;877;</Password>
    <Address>Jerusalem, Ben Yehuda St 67, Israel</Address>
    <Latitude>31.779</Latitude>
    <Longitude>35.2135</Longitude>
    <Role>volunteer</Role>
    <Active>true</Active>
    <MaxDistance>1730199835</MaxDistance>
    <TheDistanceType>air</TheDistanceType>
  </Volunteer>
  <Volunteer>
    <Id>374098725</Id>
    <Name>Dina Klein</Name>
    <PhoneNumber>0583211248</PhoneNumber>
    <Email>0583211248@gmail.com</Email>
    <Password>sv38;654457;</Password>
    <Address>Jerusalem, HaNeviim St 89, Israel</Address>
    <Latitude>31.783</Latitude>
    <Longitude>35.2143</Longitude>
    <Role>volunteer</Role>
    <Active>true</Active>
    <MaxDistance>1509237766</MaxDistance>
    <TheDistanceType>air</TheDistanceType>
  </Volunteer>
  <Volunteer>
    <Id>377390179</Id>
    <Name>Shira Israelof</Name>
    <PhoneNumber>0596527801</PhoneNumber>
    <Email>0596527801@gmail.com</Email>
    <Password>sv38&lt;985:;34</Password>
    <Address>Jerusalem, Yad Harutsim St 101, Israel</Address>
    <Latitude>31.791</Latitude>
    <Longitude>35.2007</Longitude>
    <Role>volunteer</Role>
    <Active>true</Active>
    <MaxDistance>1337496475</MaxDistance>
    <TheDistanceType>air</TheDistanceType>
  </Volunteer>
  <Volunteer>
    <Id>350165251</Id>
    <Name>yael cohen</Name>
    <PhoneNumber>0532038757</PhoneNumber>
    <Email>0532038757@gmail.com</Email>
    <Password>sv386536;:8:</Password>
    <Address>Jerusalem, Emek Refaim St 15, Israel</Address>
    <Latitude>31.758</Latitude>
    <Longitude>35.2072</Longitude>
    <Role>volunteer</Role>
    <Active>true</Active>
    <MaxDistance>1351922961</MaxDistance>
    <TheDistanceType>air</TheDistanceType>
  </Volunteer>
  <Volunteer>
    <Id>331263098</Id>
    <Name>david azrad</Name>
    <PhoneNumber>0558909926</PhoneNumber>
    <Email>0558909926@gmail.com</Email>
    <Password>sv388;&lt;3&lt;&lt;59</Password>
    <Address>Jerusalem, Malha Rd 33, Israel</Address>
    <Latitude>31.75</Latitude>
    <Longitude>35.1907</Longitude>
    <Role>volunteer</Role>
    <Active>true</Active>
    <MaxDistance>272560925</MaxDistance>
    <TheDistanceType>air</TheDistanceType>
  </Volunteer>
  <Volunteer>
    <Id>379493787</Id>
    <Name>miri levi</Name>
    <PhoneNumber>0599790896</PhoneNumber>
    <Email>0599790896@gmail.com</Email>
    <Password>sv38&lt;&lt;:&lt;3;&lt;9</Password>
    <Address>Jerusalem, Harav Kook St 2, Israel</Address>
    <Latitude>31.768</Latitude>
    <Longitude>35.2091</Longitude>
    <Role>volunteer</Role>
    <Active>true</Active>
    <MaxDistance>788845771</MaxDistance>
    <TheDistanceType>air</TheDistanceType>
  </Volunteer>
  <Volunteer>
    <Id>278788148</Id>
    <Name>amir shalom</Name>
    <PhoneNumber>0549533214</PhoneNumber>
    <Email>0549533214@gmail.com</Email>
    <Password>sv387&lt;866547</Password>
    <Address>Jerusalem, Hillel St 40, Israel</Address>
    <Latitude>31.778</Latitude>
    <Longitude>35.2181</Longitude>
    <Role>volunteer</Role>
    <Active>true</Active>
    <MaxDistance>991400351</MaxDistance>
    <TheDistanceType>air</TheDistanceType>
  </Volunteer>
  <Volunteer>
    <Id>333411926</Id>
    <Name>ronit shahar</Name>
    <PhoneNumber>0564068185</PhoneNumber>
    <Email>0564068185@gmail.com</Email>
    <Password>sv389739;4;8</Password>
    <Address>Jerusalem, Davidka Square 5, Israel</Address>
    <Latitude>31.761</Latitude>
    <Longitude>35.2133</Longitude>
    <Role>volunteer</Role>
    <Active>true</Active>
    <MaxDistance>1812889870</MaxDistance>
    <TheDistanceType>air</TheDistanceType>
  </Volunteer>
  <Volunteer>
    <Id>339228355</Id>
    <Name>itay ben-david</Name>
    <PhoneNumber>0546817145</PhoneNumber>
    <Email>0546817145@gmail.com</Email>
    <Password>sv3879;4:478</Password>
    <Address>Jerusalem, Ramban St 21, Israel</Address>
    <Latitude>31.773</Latitude>
    <Longitude>35.2046</Longitude>
    <Role>volunteer</Role>
    <Active>true</Active>
    <MaxDistance>1267534444</MaxDistance>
    <TheDistanceType>air</TheDistanceType>
  </Volunteer>
  <Volunteer>
    <Id>334736703</Id>
    <Name>maya peretz</Name>
    <PhoneNumber>0525380483</PhoneNumber>
    <Email>0525380483@gmail.com</Email>
    <Password>sv38586;37;6</Password>
    <Address>Jerusalem, Tchernichovsky St 37, Israel</Address>
    <Latitude>31.759</Latitude>
    <Longitude>35.215</Longitude>
    <Role>volunteer</Role>
    <Active>true</Active>
    <MaxDistance>1767483002</MaxDistance>
    <TheDistanceType>air</TheDistanceType>
  </Volunteer>
  <Volunteer>
    <Id>351743784</Id>
    <Name>yoni abergil</Name>
    <PhoneNumber>0588648343</PhoneNumber>
    <Email>0588648343@gmail.com</Email>
    <Password>sv38;;97;676</Password>
    <Address>Jerusalem, HaPalmach St 11, Israel</Address>
    <Latitude>31.78</Latitude>
    <Longitude>35.1984</Longitude>
    <Role>volunteer</Role>
    <Active>true</Active>
    <MaxDistance>761042858</MaxDistance>
    <TheDistanceType>air</TheDistanceType>
  </Volunteer>
  <Volunteer>
    <Id>258865411</Id>
    <Name>lior haddad</Name>
    <PhoneNumber>0582724242</PhoneNumber>
    <Email>0582724242@gmail.com</Email>
    <Password>sv38;5:57575</Password>
    <Address>Jerusalem, Keren HaYesod St 90, Israel</Address>
    <Latitude>31.762</Latitude>
    <Longitude>35.2075</Longitude>
    <Role>volunteer</Role>
    <Active>true</Active>
    <MaxDistance>44639341</MaxDistance>
    <TheDistanceType>air</TheDistanceType>
  </Volunteer>
  <Volunteer>
    <Id>258271326</Id>
    <Name>rivka azrad</Name>
    <PhoneNumber>0599692443</PhoneNumber>
    <Email>0599692443@gmail.com</Email>
    <Password>sv38&lt;&lt;9&lt;5776</Password>
    <Address>Jerusalem, Hapisga St 30, Israel</Address>
    <Latitude>31.78</Latitude>
    <Longitude>35.21</Longitude>
    <Role>volunteer</Role>
    <Active>true</Active>
    <MaxDistance>261486920</MaxDistance>
    <TheDistanceType>air</TheDistanceType>
  </Volunteer>
</ArrayOfVolunteer>