<?xml version="1.0" encoding="utf-8"?>
<ArrayOfVolunteer xmlns:xsi="http://www.w3.org/2001/XMLSchema-instance" xmlns:xsd="http://www.w3.org/2001/XMLSchema">
  <Volunteer>
    <Id>344845406</Id>
    <Name>Dani Levy</Name>
    <PhoneNumber>0530458305</PhoneNumber>
    <Email>0530458305@gmail.com</Email>
    <Password>sv386378;638</Password>
    <Address>King George 1, Jerusalem, Israel</Address>
    <Latitude>31.776</Latitude>
    <Longitude>35.2218</Longitude>
    <Role>manager</Role>
    <Active>true</Active>
    <MaxDistance>804886595</MaxDistance>
    <TheDistanceType>air</TheDistanceType>
  </Volunteer>
  <Volunteer>
    <Id>206550282</Id>
    <Name>Eli Amar</Name>
    <PhoneNumber>0541146171</PhoneNumber>
    <Email>0541146171@gmail.com</Email>
    <Password>sv38744794:4</Password>
    <Address>Jaffa 23, Jerusalem, Israel</Address>
    <Latitude>31.771</Latitude>
    <Longitude>35.2137</Longitude>
    <Role>volunteer</Role>
    <Active>true</Active>
    <MaxDistance>812528704</MaxDistance>
    <TheDistanceType>air</TheDistanceType>
  </Volunteer>
  <Volunteer>
    <Id>297838373</Id>
    <Name>Yair Cohen</Name>
    <PhoneNumber>0519047154</PhoneNumber>
    <Email>0519047154@gmail.com</Email>
    <Password>sv384&lt;37:487</Password>
    <Address>Agripas 45, Jerusalem, Israel</Address>
    <Latitude>31.777</Latitude>
    <Longitude>35.2212</Longitude>
    <Role>volunteer</Role>
    <Active>true</Active>
    <MaxDistance>1707836113</MaxDistance>
    <TheDistanceType>air</TheDistanceType>
  </Volunteer>
  <Volunteer>
    <Id>249155317</Id>
    <Name>Ariela Levin</Name>
    <PhoneNumber>0548793535</PhoneNumber>
    <Email>0548793535@gmail.com</Email>
    <Password>sv387;:&lt;6868</Password>
    <Address>Ben Yehuda 67, Jerusalem, Israel</Address>
    <Latitude>31.779</Latitude>
    <Longitude>35.2135</Longitude>
    <Role>volunteer</Role>
    <Active>true</Active>
    <MaxDistance>1537427234</MaxDistance>
    <TheDistanceType>air</TheDistanceType>
  </Volunteer>
  <Volunteer>
    <Id>226391138</Id>
    <Name>Dina Klein</Name>
    <PhoneNumber>0539759618</PhoneNumber>
    <Email>0539759618@gmail.com</Email>
    <Password>sv386&lt;:8&lt;94;</Password>
    <Address>HaNeviim 89, Jerusalem, Israel</Address>
    <Latitude>31.783</Latitude>
    <Longitude>35.2143</Longitude>
    <Role>volunteer</Role>
    <Active>true</Active>
    <MaxDistance>73715807</MaxDistance>
    <TheDistanceType>air</TheDistanceType>
  </Volunteer>
  <Volunteer>
    <Id>318844286</Id>
    <Name>Shira Israelof</Name>
    <PhoneNumber>0535311010</PhoneNumber>
    <Email>0535311010@gmail.com</Email>
    <Password>sv3868644343</Password>
    <Address>Yad Harutsim 101, Jerusalem, Israel</Address>
    <Latitude>31.791</Latitude>
    <Longitude>35.2007</Longitude>
    <Role>volunteer</Role>
    <Active>true</Active>
    <MaxDistance>1928528151</MaxDistance>
    <TheDistanceType>air</TheDistanceType>
  </Volunteer>
  <Volunteer>
    <Id>306619525</Id>
    <Name>yael cohen</Name>
    <PhoneNumber>0574199378</PhoneNumber>
    <Email>0574199378@gmail.com</Email>
    <Password>sv38:74&lt;&lt;6:;</Password>
    <Address>Emek Refaim 15, Jerusalem, Israel</Address>
    <Latitude>31.758</Latitude>
    <Longitude>35.2072</Longitude>
    <Role>volunteer</Role>
    <Active>true</Active>
    <MaxDistance>1499378867</MaxDistance>
    <TheDistanceType>air</TheDistanceType>
  </Volunteer>
  <Volunteer>
    <Id>273575829</Id>
    <Name>david azrad</Name>
    <PhoneNumber>0535334329</PhoneNumber>
    <Email>0535334329@gmail.com</Email>
    <Password>sv386866765&lt;</Password>
    <Address>Malha Rd 33, Jerusalem, Israel</Address>
    <Latitude>31.75</Latitude>
    <Longitude>35.1907</Longitude>
    <Role>volunteer</Role>
    <Active>true</Active>
    <MaxDistance>2046856100</MaxDistance>
    <TheDistanceType>air</TheDistanceType>
  </Volunteer>
  <Volunteer>
    <Id>295893739</Id>
    <Name>miri levi</Name>
    <PhoneNumber>0596293311</PhoneNumber>
    <Email>0596293311@gmail.com</Email>
    <Password>sv38&lt;95&lt;6644</Password>
    <Address>Harav Kook 2, Jerusalem, Israel</Address>
    <Latitude>31.768</Latitude>
    <Longitude>35.2091</Longitude>
    <Role>volunteer</Role>
    <Active>true</Active>
    <MaxDistance>1903335336</MaxDistance>
    <TheDistanceType>air</TheDistanceType>
  </Volunteer>
  <Volunteer>
    <Id>387550897</Id>
    <Name>amir shalom</Name>
    <PhoneNumber>0591757584</PhoneNumber>
    <Email>0591757584@gmail.com</Email>
    <Password>sv38&lt;4:8:8;7</Password>
    <Address>Hillel 40, Jerusalem, Israel</Address>
    <Latitude>31.778</Latitude>
    <Longitude>35.2181</Longitude>
    <Role>volunteer</Role>
    <Active>true</Active>
    <MaxDistance>1777473340</MaxDistance>
    <TheDistanceType>air</TheDistanceType>
  </Volunteer>
  <Volunteer>
    <Id>390843363</Id>
    <Name>ronit shahar</Name>
    <PhoneNumber>0535644901</PhoneNumber>
    <Email>0535644901@gmail.com</Email>
    <Password>sv3868977&lt;34</Password>
    <Address>Davidka Square 5, Jerusalem, Israel</Address>
    <Latitude>31.761</Latitude>
    <Longitude>35.2133</Longitude>
    <Role>volunteer</Role>
    <Active>true</Active>
    <MaxDistance>726239421</MaxDistance>
    <TheDistanceType>air</TheDistanceType>
  </Volunteer>
  <Volunteer>
    <Id>345477857</Id>
    <Name>itay ben-david</Name>
    <PhoneNumber>0543204162</PhoneNumber>
    <Email>0543204162@gmail.com</Email>
    <Password>sv3876537495</Password>
    <Address>Ramban 21, Jerusalem, Israel</Address>
    <Latitude>31.773</Latitude>
    <Longitude>35.2046</Longitude>
    <Role>volunteer</Role>
    <Active>true</Active>
    <MaxDistance>790610832</MaxDistance>
    <TheDistanceType>air</TheDistanceType>
  </Volunteer>
  <Volunteer>
    <Id>287727328</Id>
    <Name>maya peretz</Name>
    <PhoneNumber>0553405129</PhoneNumber>
    <Email>0553405129@gmail.com</Email>
    <Password>sv388673845&lt;</Password>
    <Address>Tchernichovsky 37, Jerusalem, Israel</Address>
    <Latitude>31.759</Latitude>
    <Longitude>35.215</Longitude>
    <Role>volunteer</Role>
    <Active>true</Active>
    <MaxDistance>583139870</MaxDistance>
    <TheDistanceType>air</TheDistanceType>
  </Volunteer>
  <Volunteer>
    <Id>264977840</Id>
    <Name>yoni abergil</Name>
    <PhoneNumber>0533285981</PhoneNumber>
    <Email>0533285981@gmail.com</Email>
    <Password>sv38665;8&lt;;4</Password>
    <Address>HaPalmach 11, Jerusalem, Israel</Address>
    <Latitude>31.78</Latitude>
    <Longitude>35.1984</Longitude>
    <Role>volunteer</Role>
    <Active>true</Active>
    <MaxDistance>1149684898</MaxDistance>
    <TheDistanceType>air</TheDistanceType>
  </Volunteer>
  <Volunteer>
    <Id>354751360</Id>
    <Name>lior haddad</Name>
    <PhoneNumber>0539697254</PhoneNumber>
    <Email>0539697254@gmail.com</Email>
    <Password>sv386&lt;9&lt;:587</Password>
    <Address>Keren HaYesod 90, Jerusalem, Israel</Address>
    <Latitude>31.762</Latitude>
    <Longitude>35.2075</Longitude>
    <Role>volunteer</Role>
    <Active>true</Active>
    <MaxDistance>884419405</MaxDistance>
    <TheDistanceType>air</TheDistanceType>
  </Volunteer>
  <Volunteer>
    <Id>355292249</Id>
    <Name>rivka azrad</Name>
    <PhoneNumber>0560075979</PhoneNumber>
    <Email>0560075979@gmail.com</Email>
    <Password>sv38933:8&lt;:&lt;</Password>
    <Address>Hapisga 30, Jerusalem, Israel</Address>
    <Latitude>31.78</Latitude>
    <Longitude>35.21</Longitude>
    <Role>volunteer</Role>
    <Active>true</Active>
    <MaxDistance>906639222</MaxDistance>
    <TheDistanceType>air</TheDistanceType>
  </Volunteer>
</ArrayOfVolunteer>