<?xml version="1.0" encoding="utf-8"?>
<ArrayOfVolunteer xmlns:xsi="http://www.w3.org/2001/XMLSchema-instance" xmlns:xsd="http://www.w3.org/2001/XMLSchema">
  <Volunteer>
    <Id>318207149</Id>
    <Name>Eli Amar</Name>
    <PhoneNumber>0523552942</PhoneNumber>
    <Email>0523552942@gmail.com</Email>
    <Password>sV3856885&lt;75-</Password>
    <Address>Jaffa 23, Jerusalem, Israel</Address>
    <Latitude>31.771</Latitude>
    <Longitude>35.2137</Longitude>
    <Role>volunteer</Role>
    <Active>true</Active>
    <MaxDistance>1435745538</MaxDistance>
    <TheDistanceType>air</TheDistanceType>
  </Volunteer>
  <Volunteer>
    <Id>211722251</Id>
    <Name>Yair Cohen</Name>
    <PhoneNumber>0534119938</PhoneNumber>
    <Email>0534119938@gmail.com</Email>
    <Password>sV386744&lt;&lt;6;-</Password>
    <Address>Agripas 45, Jerusalem, Israel</Address>
    <Latitude>31.777</Latitude>
    <Longitude>35.2212</Longitude>
    <Role>volunteer</Role>
    <Active>true</Active>
    <MaxDistance>1560034311</MaxDistance>
    <TheDistanceType>air</TheDistanceType>
  </Volunteer>
  <Volunteer>
    <Id>235246881</Id>
    <Name>Ariela Levin</Name>
    <PhoneNumber>0527877976</PhoneNumber>
    <Email>0527877976@gmail.com</Email>
    <Password>sV385:;::&lt;:9-</Password>
    <Address>Ben Yehuda 67, Jerusalem, Israel</Address>
    <Latitude>31.779</Latitude>
    <Longitude>35.2135</Longitude>
    <Role>volunteer</Role>
    <Active>true</Active>
    <MaxDistance>1961534169</MaxDistance>
    <TheDistanceType>air</TheDistanceType>
  </Volunteer>
  <Volunteer>
    <Id>208979633</Id>
    <Name>Dina Klein</Name>
    <PhoneNumber>0584964746</PhoneNumber>
    <Email>0584964746@gmail.com</Email>
    <Password>sV38;7&lt;97:79-</Password>
    <Address>HaNeviim 89, Jerusalem, Israel</Address>
    <Latitude>31.783</Latitude>
    <Longitude>35.2143</Longitude>
    <Role>volunteer</Role>
    <Active>true</Active>
    <MaxDistance>2045317647</MaxDistance>
    <TheDistanceType>air</TheDistanceType>
  </Volunteer>
  <Volunteer>
    <Id>208773994</Id>
    <Name>Shira Israelof</Name>
    <PhoneNumber>0588345262</PhoneNumber>
    <Email>0588345262@gmail.com</Email>
    <Password>sV38;;678595-</Password>
    <Address>Yad Harutsim 101, Jerusalem, Israel</Address>
    <Latitude>31.791</Latitude>
    <Longitude>35.2007</Longitude>
    <Role>volunteer</Role>
    <Active>true</Active>
    <MaxDistance>736872109</MaxDistance>
    <TheDistanceType>air</TheDistanceType>
  </Volunteer>
  <Volunteer>
    <Id>207249780</Id>
    <Name>yael cohen</Name>
    <PhoneNumber>0599708416</PhoneNumber>
    <Email>0599708416@gmail.com</Email>
    <Password>sV38&lt;&lt;:3;749-</Password>
    <Address>Emek Refaim 15, Jerusalem, Israel</Address>
    <Latitude>31.758</Latitude>
    <Longitude>35.2072</Longitude>
    <Role>volunteer</Role>
    <Active>true</Active>
    <MaxDistance>649421905</MaxDistance>
    <TheDistanceType>air</TheDistanceType>
  </Volunteer>
  <Volunteer>
    <Id>322638370</Id>
    <Name>david azrad</Name>
    <PhoneNumber>0543007744</PhoneNumber>
    <Email>0543007744@gmail.com</Email>
    <Password>sV387633::77-</Password>
    <Address>Malha Rd 33, Jerusalem, Israel</Address>
    <Latitude>31.75</Latitude>
    <Longitude>35.1907</Longitude>
    <Role>volunteer</Role>
    <Active>true</Active>
    <MaxDistance>1290619139</MaxDistance>
    <TheDistanceType>air</TheDistanceType>
  </Volunteer>
  <Volunteer>
    <Id>316529080</Id>
    <Name>miri levi</Name>
    <PhoneNumber>0558647478</PhoneNumber>
    <Email>0558647478@gmail.com</Email>
    <Password>sV388;97:7:;-</Password>
    <Address>Harav Kook 2, Jerusalem, Israel</Address>
    <Latitude>31.768</Latitude>
    <Longitude>35.2091</Longitude>
    <Role>volunteer</Role>
    <Active>true</Active>
    <MaxDistance>409882580</MaxDistance>
    <TheDistanceType>air</TheDistanceType>
  </Volunteer>
  <Volunteer>
    <Id>241441864</Id>
    <Name>amir shalom</Name>
    <PhoneNumber>0534688597</PhoneNumber>
    <Email>0534688597@gmail.com</Email>
    <Password>sV38679;;8&lt;:-</Password>
    <Address>Hillel 40, Jerusalem, Israel</Address>
    <Latitude>31.778</Latitude>
    <Longitude>35.2181</Longitude>
    <Role>volunteer</Role>
    <Active>true</Active>
    <MaxDistance>435085742</MaxDistance>
    <TheDistanceType>air</TheDistanceType>
  </Volunteer>
  <Volunteer>
    <Id>331295121</Id>
    <Name>ronit shahar</Name>
    <PhoneNumber>0568007079</PhoneNumber>
    <Email>0568007079@gmail.com</Email>
    <Password>sV389;33:3:&lt;-</Password>
    <Address>Davidka Square 5, Jerusalem, Israel</Address>
    <Latitude>31.761</Latitude>
    <Longitude>35.2133</Longitude>
    <Role>volunteer</Role>
    <Active>true</Active>
    <MaxDistance>747227221</MaxDistance>
    <TheDistanceType>air</TheDistanceType>
  </Volunteer>
  <Volunteer>
    <Id>215041013</Id>
    <Name>itay ben-david</Name>
    <PhoneNumber>0558774904</PhoneNumber>
    <Email>0558774904@gmail.com</Email>
    <Password>sV388;::7&lt;37-</Password>
    <Address>Ramban 21, Jerusalem, Israel</Address>
    <Latitude>31.773</Latitude>
    <Longitude>35.2046</Longitude>
    <Role>volunteer</Role>
    <Active>true</Active>
    <MaxDistance>39391731</MaxDistance>
    <TheDistanceType>air</TheDistanceType>
  </Volunteer>
  <Volunteer>
    <Id>214363350</Id>
    <Name>maya peretz</Name>
    <PhoneNumber>0540348491</PhoneNumber>
    <Email>0540348491@gmail.com</Email>
    <Password>sV387367;7&lt;4-</Password>
    <Address>Tchernichovsky 37, Jerusalem, Israel</Address>
    <Latitude>31.759</Latitude>
    <Longitude>35.215</Longitude>
    <Role>volunteer</Role>
    <Active>true</Active>
    <MaxDistance>1204558140</MaxDistance>
    <TheDistanceType>air</TheDistanceType>
  </Volunteer>
  <Volunteer>
    <Id>215089632</Id>
    <Name>yoni abergil</Name>
    <PhoneNumber>0586609398</PhoneNumber>
    <Email>0586609398@gmail.com</Email>
    <Password>sV38;993&lt;6&lt;;-</Password>
    <Address>HaPalmach 11, Jerusalem, Israel</Address>
    <Latitude>31.78</Latitude>
    <Longitude>35.1984</Longitude>
    <Role>volunteer</Role>
    <Active>true</Active>
    <MaxDistance>48561528</MaxDistance>
    <TheDistanceType>air</TheDistanceType>
  </Volunteer>
  <Volunteer>
    <Id>327887360</Id>
    <Name>lior haddad</Name>
    <PhoneNumber>0591271598</PhoneNumber>
    <Email>0591271598@gmail.com</Email>
    <Password>sV38&lt;45:48&lt;;-</Password>
    <Address>Keren HaYesod 90, Jerusalem, Israel</Address>
    <Latitude>31.762</Latitude>
    <Longitude>35.2075</Longitude>
    <Role>volunteer</Role>
    <Active>true</Active>
    <MaxDistance>133346085</MaxDistance>
    <TheDistanceType>air</TheDistanceType>
  </Volunteer>
  <Volunteer>
    <Id>326549441</Id>
    <Name>rivka azrad</Name>
    <PhoneNumber>0562866834</PhoneNumber>
    <Email>0562866834@gmail.com</Email>
    <Password>sV3895;99;67-</Password>
    <Address>Hapisga 30, Jerusalem, Israel</Address>
    <Latitude>31.78</Latitude>
    <Longitude>35.21</Longitude>
    <Role>volunteer</Role>
    <Active>true</Active>
    <MaxDistance>1638207888</MaxDistance>
    <TheDistanceType>air</TheDistanceType>
  </Volunteer>
  <Volunteer>
    <Id>218372043</Id>
    <Name>Dani Levy</Name>
    <PhoneNumber>0566025966</PhoneNumber>
    <Email>0566025966@gmail.com</Email>
    <Password>383;&lt;594;;-</Password>
    <Address>King George 1, Jerusalem, Israel</Address>
    <Latitude>31.7829393</Latitude>
    <Longitude>35.2177533</Longitude>
    <Role>manager</Role>
    <Active>true</Active>
    <MaxDistance>75314239</MaxDistance>
    <TheDistanceType>air</TheDistanceType>
  </Volunteer>
</ArrayOfVolunteer>